[
  {
    "name": "Aleknagik / New Airport",
    "latitude": 59.2826004028,
    "longitude": -158.617996216,
    "type": "medium_airport"
  },
  {
    "name": "Sas Al Nakheel Air Base",
    "latitude": 24.44128,
    "longitude": 54.51696,
    "type": "medium_airport"
  },
  {
    "name": "\"Ghost\" International Airport",
    "latitude": 33.284605,
    "longitude": 69.80734,
    "type": "medium_airport"
  },
  {
    "name": "Honiara International Airport",
    "latitude": -9.428,
    "longitude": 160.054993,
    "type": "large_airport"
  },
  {
    "name": "Munda Airport",
    "latitude": -8.32797,
    "longitude": 157.263,
    "type": "medium_airport"
  },
  {
    "name": "Hongyuan Airport",
    "latitude": 32.53154,
    "longitude": 102.35224,
    "type": "medium_airport"
  },
  {
    "name": "Spam span spam",
    "latitude": -0.0012,
    "longitude": 0.0106,
    "type": "medium_airport"
  },
  {
    "name": "Nauru International Airport",
    "latitude": -0.547458,
    "longitude": 166.919006,
    "type": "medium_airport"
  },
  {
    "name": "Boulder Clay Runway",
    "latitude": -74.739373,
    "longitude": 164.03539,
    "type": "medium_airport"
  },
  {
    "name": "Concordia Skyway",
    "latitude": -75.103278,
    "longitude": 123.35825,
    "type": "medium_airport"
  },
  {
    "name": "Vostok Skiway",
    "latitude": -78.466139,
    "longitude": 106.84825,
    "type": "medium_airport"
  },
  {
    "name": "Alxa Left Banner Bayanhot Airport",
    "latitude": 38.74831,
    "longitude": 105.58858,
    "type": "medium_airport"
  },
  {
    "name": "Buka Airport",
    "latitude": -5.4223198890686035,
    "longitude": 154.67300415039062,
    "type": "medium_airport"
  },
  {
    "name": "Chimbu Airport",
    "latitude": -6.024290084838867,
    "longitude": 144.9709930419922,
    "type": "medium_airport"
  },
  {
    "name": "Daru Airport",
    "latitude": -9.08676,
    "longitude": 143.207993,
    "type": "medium_airport"
  },
  {
    "name": "Goroka Airport",
    "latitude": -6.081689834590001,
    "longitude": 145.391998291,
    "type": "medium_airport"
  },
  {
    "name": "Gurney Airport",
    "latitude": -10.3114995956,
    "longitude": 150.333999634,
    "type": "medium_airport"
  },
  {
    "name": "Girua Airport",
    "latitude": -8.80453968048,
    "longitude": 148.309005737,
    "type": "medium_airport"
  },
  {
    "name": "Hoskins Airport",
    "latitude": -5.463846,
    "longitude": 150.407327,
    "type": "medium_airport"
  },
  {
    "name": "Kerema Airport",
    "latitude": -7.96361017227,
    "longitude": 145.770996094,
    "type": "medium_airport"
  },
  {
    "name": "Kavieng Airport",
    "latitude": -2.57940006256,
    "longitude": 150.807998657,
    "type": "medium_airport"
  },
  {
    "name": "Madang Airport",
    "latitude": -5.20707988739,
    "longitude": 145.789001465,
    "type": "medium_airport"
  },
  {
    "name": "Mount Hagen Kagamuga Airport",
    "latitude": -5.828212,
    "longitude": 144.299412,
    "type": "medium_airport"
  },
  {
    "name": "Mendi Airport",
    "latitude": -6.14774,
    "longitude": 143.656998,
    "type": "medium_airport"
  },
  {
    "name": "Momote Airport",
    "latitude": -2.06189,
    "longitude": 147.423996,
    "type": "medium_airport"
  },
  {
    "name": "Nadzab Airport",
    "latitude": -6.569803,
    "longitude": 146.725977,
    "type": "medium_airport"
  },
  {
    "name": "Port Moresby Jacksons International Airport",
    "latitude": -9.443380355834961,
    "longitude": 147.22000122070312,
    "type": "large_airport"
  },
  {
    "name": "Tokua Airport",
    "latitude": -4.34046,
    "longitude": 152.380005,
    "type": "medium_airport"
  },
  {
    "name": "Vanimo Airport",
    "latitude": -2.6926,
    "longitude": 141.3028,
    "type": "medium_airport"
  },
  {
    "name": "Wapenamanda Airport",
    "latitude": -5.635293,
    "longitude": 143.892231,
    "type": "medium_airport"
  },
  {
    "name": "Wewak International Airport",
    "latitude": -3.58383011818,
    "longitude": 143.669006348,
    "type": "medium_airport"
  },
  {
    "name": "Zabrat Airport",
    "latitude": 40.4955422161,
    "longitude": 49.9768066406,
    "type": "medium_airport"
  },
  {
    "name": "Sitalchay Airbase",
    "latitude": 40.807313,
    "longitude": 49.431481,
    "type": "medium_airport"
  },
  {
    "name": "Qizilagach Air Base",
    "latitude": 39.006162,
    "longitude": 48.806312,
    "type": "medium_airport"
  },
  {
    "name": "Benguera Island Airport",
    "latitude": -21.8533,
    "longitude": 35.438301,
    "type": "medium_airport"
  },
  {
    "name": "Bezmer Air Base",
    "latitude": 42.454899,
    "longitude": 26.3522,
    "type": "medium_airport"
  },
  {
    "name": "Aasiaat Airport",
    "latitude": 68.721802,
    "longitude": -52.784698,
    "type": "medium_airport"
  },
  {
    "name": "Narsarsuaq Airport",
    "latitude": 61.1605,
    "longitude": -45.425999,
    "type": "medium_airport"
  },
  {
    "name": "Nuuk Airport",
    "latitude": 64.193022,
    "longitude": -51.676512,
    "type": "medium_airport"
  },
  {
    "name": "Ilulissat Airport",
    "latitude": 69.243202,
    "longitude": -51.057098,
    "type": "medium_airport"
  },
  {
    "name": "Kulusuk Airport",
    "latitude": 65.573601,
    "longitude": -37.1236,
    "type": "medium_airport"
  },
  {
    "name": "Kangerlussuaq Airport",
    "latitude": 67.010446,
    "longitude": -50.715294,
    "type": "medium_airport"
  },
  {
    "name": "Sisimiut Airport",
    "latitude": 66.951302,
    "longitude": -53.729301,
    "type": "medium_airport"
  },
  {
    "name": "Pituffik Space Base",
    "latitude": 76.531197,
    "longitude": -68.703201,
    "type": "medium_airport"
  },
  {
    "name": "Akureyri Airport",
    "latitude": 65.656573,
    "longitude": -18.072018,
    "type": "medium_airport"
  },
  {
    "name": "Egilsstaðir Airport",
    "latitude": 65.2833023071289,
    "longitude": -14.401399612426758,
    "type": "medium_airport"
  },
  {
    "name": "Hornafjörður Airport",
    "latitude": 64.295601,
    "longitude": -15.2272,
    "type": "medium_airport"
  },
  {
    "name": "Húsavík Airport",
    "latitude": 65.952301,
    "longitude": -17.426001,
    "type": "medium_airport"
  },
  {
    "name": "Ísafjörður Airport",
    "latitude": 66.058098,
    "longitude": -23.1353,
    "type": "medium_airport"
  },
  {
    "name": "Keflavik International Airport",
    "latitude": 63.985001,
    "longitude": -22.6056,
    "type": "large_airport"
  },
  {
    "name": "Reykjavik Airport",
    "latitude": 64.1299972534,
    "longitude": -21.9405994415,
    "type": "medium_airport"
  },
  {
    "name": "Siglufjörður Airport",
    "latitude": 66.137847,
    "longitude": -18.908157,
    "type": "medium_airport"
  },
  {
    "name": "Vestmannaeyjar Airport",
    "latitude": 63.42430114746094,
    "longitude": -20.278900146484375,
    "type": "medium_airport"
  },
  {
    "name": "Priština Adem Jashari International Airport",
    "latitude": 42.5728,
    "longitude": 21.035801,
    "type": "medium_airport"
  },
  {
    "name": "Glauber de Andrade Rocha Airport",
    "latitude": -14.907885,
    "longitude": -40.914804,
    "type": "medium_airport"
  },
  {
    "name": "Betong International Airport",
    "latitude": 5.79,
    "longitude": 101.15,
    "type": "medium_airport"
  },
  {
    "name": "Orsha Airport - Balbasovo Air Base",
    "latitude": 54.439999,
    "longitude": 30.2967,
    "type": "medium_airport"
  },
  {
    "name": "Osovtsy Air Base",
    "latitude": 52.556999,
    "longitude": 24.884001,
    "type": "medium_airport"
  },
  {
    "name": "Caye Caulker Airport",
    "latitude": 17.735015,
    "longitude": -88.032862,
    "type": "medium_airport"
  },
  {
    "name": "Caye Chapel Airport",
    "latitude": 17.683792,
    "longitude": -88.044985,
    "type": "medium_airport"
  },
  {
    "name": "Corozal Airport",
    "latitude": 18.3822,
    "longitude": -88.411903,
    "type": "medium_airport"
  },
  {
    "name": "Dangriga Airport",
    "latitude": 16.98251,
    "longitude": -88.230988,
    "type": "medium_airport"
  },
  {
    "name": "Placencia Airport",
    "latitude": 16.536957,
    "longitude": -88.361511,
    "type": "medium_airport"
  },
  {
    "name": "Punta Gorda Airport",
    "latitude": 16.1024,
    "longitude": -88.808296,
    "type": "medium_airport"
  },
  {
    "name": "Sartaneja Airport",
    "latitude": 18.3561,
    "longitude": -88.130798,
    "type": "medium_airport"
  },
  {
    "name": "John Greif II Airport",
    "latitude": 17.9139,
    "longitude": -87.9711,
    "type": "medium_airport"
  },
  {
    "name": "Sir Barry Bowen Municipal Airport",
    "latitude": 17.517239,
    "longitude": -88.195775,
    "type": "medium_airport"
  },
  {
    "name": "Bazaruto Island Airport",
    "latitude": -21.5411,
    "longitude": 35.4729,
    "type": "medium_airport"
  },
  {
    "name": "Anahim Lake Airport",
    "latitude": 52.451501,
    "longitude": -125.303776,
    "type": "medium_airport"
  },
  {
    "name": "Qualicum Beach Airport",
    "latitude": 49.337456,
    "longitude": -124.393086,
    "type": "medium_airport"
  },
  {
    "name": "Cache Creek-Ashcroft Regional Airport",
    "latitude": 50.775258,
    "longitude": -121.321314,
    "type": "medium_airport"
  },
  {
    "name": "Bella Bella (Campbell Island) Airport",
    "latitude": 52.185001,
    "longitude": -128.156994,
    "type": "medium_airport"
  },
  {
    "name": "Boma Lukandu International Airport",
    "latitude": -5.80543,
    "longitude": 12.99582,
    "type": "medium_airport"
  },
  {
    "name": "BNB - BOENDE",
    "latitude": -0.2875,
    "longitude": 20.883056,
    "type": "medium_airport"
  },
  {
    "name": "Nuevo Chaitén Airport",
    "latitude": -42.781943,
    "longitude": -72.834999,
    "type": "medium_airport"
  },
  {
    "name": "Laohutun Air Base",
    "latitude": 39.669998,
    "longitude": 121.765999,
    "type": "medium_airport"
  },
  {
    "name": "Pulandian Air Base",
    "latitude": 39.450901,
    "longitude": 122.017998,
    "type": "medium_airport"
  },
  {
    "name": "Beijing Shahezhen Air Base",
    "latitude": 40.149166107177734,
    "longitude": 116.3213882446289,
    "type": "medium_airport"
  },
  {
    "name": "Beijing Tongxian Air Base",
    "latitude": 39.81111145019531,
    "longitude": 116.70833587646484,
    "type": "medium_airport"
  },
  {
    "name": "Yuanmou Air Base",
    "latitude": 25.737499,
    "longitude": 101.882004,
    "type": "medium_airport"
  },
  {
    "name": "Fengning Air Base",
    "latitude": 41.260799407958984,
    "longitude": 116.61799621582031,
    "type": "medium_airport"
  },
  {
    "name": "Hohhot Bikeqi Air Base",
    "latitude": 40.737015,
    "longitude": 111.229749,
    "type": "medium_airport"
  },
  {
    "name": "Huairen Air Base",
    "latitude": 39.717499,
    "longitude": 113.142998,
    "type": "medium_airport"
  },
  {
    "name": "Liangxiangzhen Air Base",
    "latitude": 39.757801,
    "longitude": 116.125999,
    "type": "medium_airport"
  },
  {
    "name": "Tangguantun Air Base",
    "latitude": 38.781101,
    "longitude": 117.068001,
    "type": "medium_airport"
  },
  {
    "name": "Wenshui Air Base",
    "latitude": 37.407799,
    "longitude": 111.966003,
    "type": "medium_airport"
  },
  {
    "name": "Yangcun Air Base",
    "latitude": 39.37329864501953,
    "longitude": 117.09500122070312,
    "type": "medium_airport"
  },
  {
    "name": "Yongning Air Base",
    "latitude": 40.50310134887695,
    "longitude": 116.10800170898438,
    "type": "medium_airport"
  },
  {
    "name": "Zhangjiakou Ningyuan Airport",
    "latitude": 40.738602,
    "longitude": 114.93,
    "type": "medium_airport"
  },
  {
    "name": "Tangshan Zunhua Air Base",
    "latitude": 40.102501,
    "longitude": 117.887001,
    "type": "medium_airport"
  },
  {
    "name": "Chengdu Huangtianba Air Base",
    "latitude": 30.705299,
    "longitude": 103.949997,
    "type": "medium_airport"
  },
  {
    "name": "Baoshan Yunrui Airport",
    "latitude": 25.053301,
    "longitude": 99.168297,
    "type": "medium_airport"
  },
  {
    "name": "Chongqing Baishiyi Air Base",
    "latitude": 29.4953,
    "longitude": 106.359001,
    "type": "medium_airport"
  },
  {
    "name": "Lincang Boshang Airport",
    "latitude": 23.7381,
    "longitude": 100.025002,
    "type": "medium_airport"
  },
  {
    "name": "Luliang Air Base",
    "latitude": 24.988192,
    "longitude": 103.642833,
    "type": "medium_airport"
  },
  {
    "name": "Honghe Mengzi Airport / Mengzi Air Base",
    "latitude": 23.3953,
    "longitude": 103.334,
    "type": "medium_airport"
  },
  {
    "name": "Qionglai Air Base",
    "latitude": 30.49099,
    "longitude": 103.466139,
    "type": "medium_airport"
  },
  {
    "name": "Xigaze Peace Airport / Shigatse Air Base",
    "latitude": 29.3519,
    "longitude": 89.311401,
    "type": "medium_airport"
  },
  {
    "name": "Wenshan Air Base",
    "latitude": 23.715599060058594,
    "longitude": 103.8270034790039,
    "type": "medium_airport"
  },
  {
    "name": "Xiangyun Midu Air Base",
    "latitude": 25.445299,
    "longitude": 100.735001,
    "type": "medium_airport"
  },
  {
    "name": "Panzhihua Bao'anying Airport",
    "latitude": 26.54,
    "longitude": 101.79852,
    "type": "medium_airport"
  },
  {
    "name": "Baihe Ningming Air Base",
    "latitude": 22.120481,
    "longitude": 107.125046,
    "type": "medium_airport"
  },
  {
    "name": "Changsha Datuopu Airport / Changsha Air Base",
    "latitude": 28.068522,
    "longitude": 112.957306,
    "type": "medium_airport"
  },
  {
    "name": "Dangyang Air Base",
    "latitude": 30.798599,
    "longitude": 111.809998,
    "type": "medium_airport"
  },
  {
    "name": "Foluo Northeast Air Base",
    "latitude": 18.6922,
    "longitude": 109.161003,
    "type": "medium_airport"
  },
  {
    "name": "Foshan Shadi Airport",
    "latitude": 23.0833,
    "longitude": 113.07,
    "type": "medium_airport"
  },
  {
    "name": "Guiping Mengxu Air Base",
    "latitude": 23.330799,
    "longitude": 110.009003,
    "type": "medium_airport"
  },
  {
    "name": "Xinyang Minggang Airport",
    "latitude": 32.540819,
    "longitude": 114.079141,
    "type": "medium_airport"
  },
  {
    "name": "Huizhou Pingtan Airport",
    "latitude": 23.049999,
    "longitude": 114.599998,
    "type": "medium_airport"
  },
  {
    "name": "Jialaishi Air Base",
    "latitude": 19.697201,
    "longitude": 109.725998,
    "type": "medium_airport"
  },
  {
    "name": "Leiyang Air Base",
    "latitude": 26.587200164794922,
    "longitude": 112.89199829101562,
    "type": "medium_airport"
  },
  {
    "name": "Lingshui Air Base",
    "latitude": 18.4944,
    "longitude": 109.987999,
    "type": "medium_airport"
  },
  {
    "name": "Shangqiu Air Base",
    "latitude": 34.449507,
    "longitude": 115.459261,
    "type": "medium_airport"
  },
  {
    "name": "Zhengzhou Air Base",
    "latitude": 34.86125,
    "longitude": 113.729631,
    "type": "medium_airport"
  },
  {
    "name": "Shaoguan Danxia Airport",
    "latitude": 24.9786,
    "longitude": 113.420998,
    "type": "medium_airport"
  },
  {
    "name": "Suixi Air Base",
    "latitude": 21.3958,
    "longitude": 110.199997,
    "type": "medium_airport"
  },
  {
    "name": "Jinggangshan Airport",
    "latitude": 26.856899,
    "longitude": 114.737,
    "type": "medium_airport"
  },
  {
    "name": "Baise (Bose) Bama Airport",
    "latitude": 23.7206,
    "longitude": 106.959999,
    "type": "medium_airport"
  },
  {
    "name": "Guodu Air Base",
    "latitude": 36.000428,
    "longitude": 117.625833,
    "type": "medium_airport"
  },
  {
    "name": "Xiaogan Air Base",
    "latitude": 30.95359,
    "longitude": 113.911774,
    "type": "medium_airport"
  },
  {
    "name": "Lianyungang Huaguoshan International Airport",
    "latitude": 34.41406,
    "longitude": 119.17899,
    "type": "medium_airport"
  },
  {
    "name": "Cangxian Air Base",
    "latitude": 38.403025,
    "longitude": 116.930924,
    "type": "medium_airport"
  },
  {
    "name": "Dongying Shengli Airport",
    "latitude": 37.50137,
    "longitude": 118.789863,
    "type": "medium_airport"
  },
  {
    "name": "Jiaozhou Jiaocheng Air Base",
    "latitude": 36.331163,
    "longitude": 120.025538,
    "type": "medium_airport"
  },
  {
    "name": "Jiugucheng Air Base",
    "latitude": 37.491153,
    "longitude": 116.116726,
    "type": "medium_airport"
  },
  {
    "name": "Kaifeng Air Base",
    "latitude": 34.75389862060547,
    "longitude": 114.33899688720703,
    "type": "medium_airport"
  },
  {
    "name": "Laiyang Air Base",
    "latitude": 36.9636,
    "longitude": 120.591003,
    "type": "medium_airport"
  },
  {
    "name": "Luyang Air Base",
    "latitude": 33.685434,
    "longitude": 112.89053,
    "type": "medium_airport"
  },
  {
    "name": "Xingcheng Air Base",
    "latitude": 40.580328,
    "longitude": 120.700374,
    "type": "medium_airport"
  },
  {
    "name": "Xuzhou Daguozhang Air Base",
    "latitude": 34.229285,
    "longitude": 117.245665,
    "type": "medium_airport"
  },
  {
    "name": "Zhucheng Air Base",
    "latitude": 36.027468,
    "longitude": 119.43778,
    "type": "medium_airport"
  },
  {
    "name": "Altay Xuedu Airport",
    "latitude": 47.749886,
    "longitude": 88.085808,
    "type": "medium_airport"
  },
  {
    "name": "Baoji Air Base",
    "latitude": 34.53125,
    "longitude": 107.470679,
    "type": "medium_airport"
  },
  {
    "name": "Gonghe Air Base (under construction)",
    "latitude": 36.3367,
    "longitude": 100.480003,
    "type": "medium_airport"
  },
  {
    "name": "Huangdicun Naval Air Base",
    "latitude": 40.49979,
    "longitude": 120.659295,
    "type": "medium_airport"
  },
  {
    "name": "Lanzhou Air Base",
    "latitude": 35.917801,
    "longitude": 104.218002,
    "type": "medium_airport"
  },
  {
    "name": "Lintao Air Base",
    "latitude": 35.3083,
    "longitude": 103.835999,
    "type": "medium_airport"
  },
  {
    "name": "Qingshui Air Base",
    "latitude": 39.554699,
    "longitude": 98.884201,
    "type": "medium_airport"
  },
  {
    "name": "Tianshui Maijishan Airport",
    "latitude": 34.5601,
    "longitude": 105.860343,
    "type": "medium_airport"
  },
  {
    "name": "Ürümqi South Air Base",
    "latitude": 43.466593,
    "longitude": 87.531177,
    "type": "medium_airport"
  },
  {
    "name": "Uxxaktal Air Base",
    "latitude": 42.1814,
    "longitude": 87.188103,
    "type": "medium_airport"
  },
  {
    "name": "Wugong Air Base",
    "latitude": 34.275907,
    "longitude": 108.2658,
    "type": "medium_airport"
  },
  {
    "name": "Ürümqi Changji Air Base",
    "latitude": 43.951175,
    "longitude": 87.079232,
    "type": "medium_airport"
  },
  {
    "name": "Wuwei Air Base",
    "latitude": 37.9883,
    "longitude": 102.567001,
    "type": "medium_airport"
  },
  {
    "name": "Xi'an Air Base",
    "latitude": 34.153059,
    "longitude": 108.599739,
    "type": "medium_airport"
  },
  {
    "name": "Xincheng Air Base",
    "latitude": 25.5483,
    "longitude": 114.619003,
    "type": "medium_airport"
  },
  {
    "name": "Yaerbashi Test Range",
    "latitude": 43.077202,
    "longitude": 92.808098,
    "type": "medium_airport"
  },
  {
    "name": "Yanliang Air Base",
    "latitude": 34.642248,
    "longitude": 109.241867,
    "type": "medium_airport"
  },
  {
    "name": "Daishan Air Base",
    "latitude": 30.287581,
    "longitude": 122.144401,
    "type": "medium_airport"
  },
  {
    "name": "Feidong Air Base",
    "latitude": 31.909401,
    "longitude": 117.658997,
    "type": "medium_airport"
  },
  {
    "name": "Fuzhou Air Base",
    "latitude": 26.0044,
    "longitude": 119.311996,
    "type": "medium_airport"
  },
  {
    "name": "Huian Air Base",
    "latitude": 25.026100158691406,
    "longitude": 118.80699920654297,
    "type": "medium_airport"
  },
  {
    "name": "Hangzhou Jianqiao Airport",
    "latitude": 30.3353,
    "longitude": 120.240997,
    "type": "medium_airport"
  },
  {
    "name": "Jiaxing Airport / Jiaxing Air Base",
    "latitude": 30.705535,
    "longitude": 120.679779,
    "type": "medium_airport"
  },
  {
    "name": "Longtian Air Base",
    "latitude": 25.5728,
    "longitude": 119.459999,
    "type": "medium_airport"
  },
  {
    "name": "Nanchang Xiangtang Air Base",
    "latitude": 28.421205,
    "longitude": 115.923375,
    "type": "medium_airport"
  },
  {
    "name": "Ningbo Zhuangqiao Air Base",
    "latitude": 29.9228,
    "longitude": 121.573997,
    "type": "medium_airport"
  },
  {
    "name": "Shanghai Dachang Air Base",
    "latitude": 31.324438,
    "longitude": 121.409508,
    "type": "medium_airport"
  },
  {
    "name": "Wuhan Hannan Municipal Airport",
    "latitude": 30.25521,
    "longitude": 114.062805,
    "type": "medium_airport"
  },
  {
    "name": "Zhangshu Air Base",
    "latitude": 28.023283,
    "longitude": 115.549649,
    "type": "medium_airport"
  },
  {
    "name": "Changchun Air Base",
    "latitude": 43.9053,
    "longitude": 125.197998,
    "type": "medium_airport"
  },
  {
    "name": "Beijing Nanjiao Airport",
    "latitude": 39.48595,
    "longitude": 116.37236,
    "type": "medium_airport"
  },
  {
    "name": "Dandong Langtou Airport",
    "latitude": 40.025453,
    "longitude": 124.28669,
    "type": "medium_airport"
  },
  {
    "name": "Dingxin-Shuangchengzi Air Base",
    "latitude": 40.401402,
    "longitude": 99.789398,
    "type": "medium_airport"
  },
  {
    "name": "Fuxin Air Base",
    "latitude": 42.078899,
    "longitude": 121.662003,
    "type": "medium_airport"
  },
  {
    "name": "Gongzhuling Air Base",
    "latitude": 43.526293,
    "longitude": 124.78466,
    "type": "medium_airport"
  },
  {
    "name": "Kaiyuan Air Base",
    "latitude": 42.525799,
    "longitude": 123.982002,
    "type": "medium_airport"
  },
  {
    "name": "Lalin Air Base",
    "latitude": 45.259457,
    "longitude": 126.893536,
    "type": "medium_airport"
  },
  {
    "name": "Pingquan Air Base",
    "latitude": 40.900409,
    "longitude": 118.677878,
    "type": "medium_airport"
  },
  {
    "name": "Shenyang Beiling Air Base",
    "latitude": 41.8708,
    "longitude": 123.439003,
    "type": "medium_airport"
  },
  {
    "name": "Shenyang Yuhong Quansheng Airport",
    "latitude": 41.822498,
    "longitude": 123.299004,
    "type": "medium_airport"
  },
  {
    "name": "Siping Air Base",
    "latitude": 43.156898,
    "longitude": 124.292,
    "type": "medium_airport"
  },
  {
    "name": "Suizhong Air Base",
    "latitude": 40.298992,
    "longitude": 120.36152,
    "type": "medium_airport"
  },
  {
    "name": "Tuchengzi Air Base",
    "latitude": 38.912201,
    "longitude": 121.238998,
    "type": "medium_airport"
  },
  {
    "name": "Rikaze Dingri Airport",
    "latitude": 28.604567,
    "longitude": 86.798,
    "type": "medium_airport"
  },
  {
    "name": "Tashikuergan Hongqilafu Airport",
    "latitude": 37.661333,
    "longitude": 75.288877,
    "type": "medium_airport"
  },
  {
    "name": "Chenghu General Airport",
    "latitude": 31.215334,
    "longitude": 120.789328,
    "type": "medium_airport"
  },
  {
    "name": "Liyang Tianmuhu General Airport",
    "latitude": 31.53904,
    "longitude": 119.502554,
    "type": "medium_airport"
  },
  {
    "name": "Anji Tianzihu General Airport",
    "latitude": 30.797725,
    "longitude": 119.590287,
    "type": "medium_airport"
  },
  {
    "name": "Jiuzhou Airport",
    "latitude": 26.998259,
    "longitude": 107.759571,
    "type": "medium_airport"
  },
  {
    "name": "Paozhuwan Air Base",
    "latitude": 30.673944,
    "longitude": 114.63089,
    "type": "medium_airport"
  },
  {
    "name": "Shanpo Air Base",
    "latitude": 30.087612,
    "longitude": 114.31366,
    "type": "medium_airport"
  },
  {
    "name": "Zhanjiang Wuchuan Airport",
    "latitude": 21.481667,
    "longitude": 110.590278,
    "type": "medium_airport"
  },
  {
    "name": "Ali Pulan Airport",
    "latitude": 30.3975,
    "longitude": 81.138611,
    "type": "medium_airport"
  },
  {
    "name": "Shaodong Airport",
    "latitude": 27.2235,
    "longitude": 111.6741,
    "type": "medium_airport"
  },
  {
    "name": "Ningxiang",
    "latitude": 27.987589,
    "longitude": 112.604971,
    "type": "medium_airport"
  },
  {
    "name": "Sanshilipu Air Base",
    "latitude": 39.289671,
    "longitude": 121.762195,
    "type": "medium_airport"
  },
  {
    "name": "Nantong Xingdong International Airport",
    "latitude": 32.073566,
    "longitude": 120.980076,
    "type": "medium_airport"
  },
  {
    "name": "Brampton-Caledon Airport",
    "latitude": 43.7603,
    "longitude": -79.875,
    "type": "medium_airport"
  },
  {
    "name": "Lefkoniko Airport / Geçitkale Air Base",
    "latitude": 35.23591,
    "longitude": 33.720088,
    "type": "medium_airport"
  },
  {
    "name": "Fort Frances Municipal Airport",
    "latitude": 48.655749,
    "longitude": -93.44349,
    "type": "medium_airport"
  },
  {
    "name": "La Grande-4 Airport",
    "latitude": 53.754699707,
    "longitude": -73.6753005981,
    "type": "medium_airport"
  },
  {
    "name": "Sault Ste Marie Airport",
    "latitude": 46.483216,
    "longitude": -84.508467,
    "type": "medium_airport"
  },
  {
    "name": "Kasabonika Airport",
    "latitude": 53.52470016479492,
    "longitude": -88.6427993774414,
    "type": "medium_airport"
  },
  {
    "name": "Winnipeg / St. Andrews Airport",
    "latitude": 50.0564,
    "longitude": -97.032501,
    "type": "medium_airport"
  },
  {
    "name": "Lac Du Bonnet Airport",
    "latitude": 50.294399,
    "longitude": -96.010002,
    "type": "medium_airport"
  },
  {
    "name": "St. Anthony Airport",
    "latitude": 51.391909,
    "longitude": -56.08321,
    "type": "medium_airport"
  },
  {
    "name": "Tofino / Long Beach Airport",
    "latitude": 49.079833,
    "longitude": -125.775583,
    "type": "medium_airport"
  },
  {
    "name": "Baie-Comeau Airport",
    "latitude": 49.1325,
    "longitude": -68.204399,
    "type": "medium_airport"
  },
  {
    "name": "Bella Coola Airport",
    "latitude": 52.387501,
    "longitude": -126.596001,
    "type": "medium_airport"
  },
  {
    "name": "Bonnyville Airport",
    "latitude": 54.304199,
    "longitude": -110.744003,
    "type": "medium_airport"
  },
  {
    "name": "CFB Bagotville / Saguenay-Bagotville Airport",
    "latitude": 48.331908,
    "longitude": -70.992909,
    "type": "medium_airport"
  },
  {
    "name": "Baker Lake Airport",
    "latitude": 64.29889678960001,
    "longitude": -96.077796936,
    "type": "medium_airport"
  },
  {
    "name": "Campbell River Airport",
    "latitude": 49.950802,
    "longitude": -125.271004,
    "type": "medium_airport"
  },
  {
    "name": "Brandon Municipal Airport",
    "latitude": 49.91,
    "longitude": -99.951897,
    "type": "medium_airport"
  },
  {
    "name": "Nipawin Airport",
    "latitude": 53.33250045776367,
    "longitude": -104.00800323486328,
    "type": "medium_airport"
  },
  {
    "name": "Calgary / Springbank Airport",
    "latitude": 51.1031,
    "longitude": -114.374001,
    "type": "medium_airport"
  },
  {
    "name": "Lourdes-de-Blanc-Sablon Airport",
    "latitude": 51.4436,
    "longitude": -57.185299,
    "type": "medium_airport"
  },
  {
    "name": "Cambridge Bay Airport",
    "latitude": 69.1081008911,
    "longitude": -105.138000488,
    "type": "medium_airport"
  },
  {
    "name": "Cornwall Regional Airport",
    "latitude": 45.092637,
    "longitude": -74.567724,
    "type": "medium_airport"
  },
  {
    "name": "Nanaimo Airport",
    "latitude": 49.05497,
    "longitude": -123.869863,
    "type": "medium_airport"
  },
  {
    "name": "Centralia / James T. Field Memorial Aerodrome",
    "latitude": 43.285599,
    "longitude": -81.508301,
    "type": "medium_airport"
  },
  {
    "name": "Castlegar/West Kootenay Regional Airport",
    "latitude": 49.296398,
    "longitude": -117.632004,
    "type": "medium_airport"
  },
  {
    "name": "Miramichi Airport",
    "latitude": 47.007801,
    "longitude": -65.449203,
    "type": "medium_airport"
  },
  {
    "name": "Charlo Airport",
    "latitude": 47.990799,
    "longitude": -66.330299,
    "type": "medium_airport"
  },
  {
    "name": "Cochrane Airport",
    "latitude": 49.10559844970703,
    "longitude": -81.01360321044922,
    "type": "medium_airport"
  },
  {
    "name": "Blue River Airport",
    "latitude": 52.11669921875,
    "longitude": -119.28299713134766,
    "type": "medium_airport"
  },
  {
    "name": "Chetwynd Airport",
    "latitude": 55.687198638916016,
    "longitude": -121.62699890136719,
    "type": "medium_airport"
  },
  {
    "name": "Dawson City Airport",
    "latitude": 64.04309844970703,
    "longitude": -139.1280059814453,
    "type": "medium_airport"
  },
  {
    "name": "Burwash Airport",
    "latitude": 61.371101,
    "longitude": -139.041,
    "type": "medium_airport"
  },
  {
    "name": "Deer Lake Airport",
    "latitude": 49.2108,
    "longitude": -57.391399,
    "type": "medium_airport"
  },
  {
    "name": "Ross River Airport",
    "latitude": 61.9706001282,
    "longitude": -132.42300415,
    "type": "medium_airport"
  },
  {
    "name": "Dauphin Barker Airport",
    "latitude": 51.1008,
    "longitude": -100.052002,
    "type": "medium_airport"
  },
  {
    "name": "Dolbeau-Saint-Felicien Airport",
    "latitude": 48.7785,
    "longitude": -72.375,
    "type": "medium_airport"
  },
  {
    "name": "Dawson Creek Airport",
    "latitude": 55.741245,
    "longitude": -120.183263,
    "type": "medium_airport"
  },
  {
    "name": "Huronia Airport",
    "latitude": 44.6833000183,
    "longitude": -79.9282989502,
    "type": "medium_airport"
  },
  {
    "name": "Edmonton International Airport",
    "latitude": 53.3097,
    "longitude": -113.580002,
    "type": "large_airport"
  },
  {
    "name": "Elliot Lake Municipal Airport",
    "latitude": 46.351398468,
    "longitude": -82.5614013672,
    "type": "medium_airport"
  },
  {
    "name": "Manitoulin East Municipal Airport",
    "latitude": 45.842435,
    "longitude": -81.857595,
    "type": "medium_airport"
  },
  {
    "name": "Estevan Airport",
    "latitude": 49.2103004456,
    "longitude": -102.966003418,
    "type": "medium_airport"
  },
  {
    "name": "Edson Airport",
    "latitude": 53.578899383499994,
    "longitude": -116.464996338,
    "type": "medium_airport"
  },
  {
    "name": "Inuvik Mike Zubko Airport",
    "latitude": 68.30419921880001,
    "longitude": -133.483001709,
    "type": "medium_airport"
  },
  {
    "name": "Amos/Magny Airport",
    "latitude": 48.563903,
    "longitude": -78.249702,
    "type": "medium_airport"
  },
  {
    "name": "Iqaluit Airport",
    "latitude": 63.756402,
    "longitude": -68.555801,
    "type": "medium_airport"
  },
  {
    "name": "Fredericton Airport",
    "latitude": 45.868900299072266,
    "longitude": -66.53720092773438,
    "type": "medium_airport"
  },
  {
    "name": "Forestville Airport",
    "latitude": 48.74610137939453,
    "longitude": -69.09719848632812,
    "type": "medium_airport"
  },
  {
    "name": "Mont-Tremblant International Airport",
    "latitude": 46.409401,
    "longitude": -74.779999,
    "type": "medium_airport"
  },
  {
    "name": "Fort Resolution Airport",
    "latitude": 61.1808013916,
    "longitude": -113.690002441,
    "type": "medium_airport"
  },
  {
    "name": "Fort Simpson Airport",
    "latitude": 61.76020050048828,
    "longitude": -121.23699951171875,
    "type": "medium_airport"
  },
  {
    "name": "Goderich Airport",
    "latitude": 43.7668991089,
    "longitude": -81.7106018066,
    "type": "medium_airport"
  },
  {
    "name": "Golden Airport",
    "latitude": 51.299196,
    "longitude": -116.982002,
    "type": "medium_airport"
  },
  {
    "name": "Kingston Norman Rogers Airport",
    "latitude": 44.2253,
    "longitude": -76.596901,
    "type": "medium_airport"
  },
  {
    "name": "La Grande Rivière Airport",
    "latitude": 53.625301361083984,
    "longitude": -77.7042007446289,
    "type": "medium_airport"
  },
  {
    "name": "Gimli Industrial Park Airport",
    "latitude": 50.62810134887695,
    "longitude": -97.04329681396484,
    "type": "medium_airport"
  },
  {
    "name": "Michel-Pouliot Gaspé Airport",
    "latitude": 48.774915,
    "longitude": -64.481893,
    "type": "medium_airport"
  },
  {
    "name": "Geraldton Greenstone Regional Airport",
    "latitude": 49.77830123901367,
    "longitude": -86.93939971923828,
    "type": "medium_airport"
  },
  {
    "name": "Îles-de-la-Madeleine Airport",
    "latitude": 47.425242,
    "longitude": -61.778612,
    "type": "medium_airport"
  },
  {
    "name": "Havre-Saint-Pierre Airport",
    "latitude": 50.281898,
    "longitude": -63.611401,
    "type": "medium_airport"
  },
  {
    "name": "Kuujjuarapik Airport",
    "latitude": 55.281898498535156,
    "longitude": -77.76529693603516,
    "type": "medium_airport"
  },
  {
    "name": "Dryden Regional Airport",
    "latitude": 49.831699,
    "longitude": -92.744202,
    "type": "medium_airport"
  },
  {
    "name": "Hearst René Fontaine Municipal Airport",
    "latitude": 49.71419906616211,
    "longitude": -83.68609619140625,
    "type": "medium_airport"
  },
  {
    "name": "John C. Munro Hamilton International Airport",
    "latitude": 43.173599243199995,
    "longitude": -79.93499755859999,
    "type": "medium_airport"
  },
  {
    "name": "Hornepayne Municipal Airport",
    "latitude": 49.19309997558594,
    "longitude": -84.75890350341797,
    "type": "medium_airport"
  },
  {
    "name": "Haines Junction Airport",
    "latitude": 60.7892,
    "longitude": -137.546005,
    "type": "medium_airport"
  },
  {
    "name": "Montréal / Saint-Hubert Airport",
    "latitude": 45.5175018311,
    "longitude": -73.4169006348,
    "type": "medium_airport"
  },
  {
    "name": "Hay River / Merlyn Carter Airport",
    "latitude": 60.8396987915,
    "longitude": -115.782997131,
    "type": "medium_airport"
  },
  {
    "name": "Halifax / Stanfield International Airport",
    "latitude": 44.8807983398,
    "longitude": -63.5085983276,
    "type": "large_airport"
  },
  {
    "name": "Atikokan Municipal Airport",
    "latitude": 48.7738990784,
    "longitude": -91.6386032104,
    "type": "medium_airport"
  },
  {
    "name": "Digby / Annapolis Regional Airport",
    "latitude": 44.5458450365,
    "longitude": -65.7854247093,
    "type": "medium_airport"
  },
  {
    "name": "St Augustin Airport",
    "latitude": 51.2117,
    "longitude": -58.658298,
    "type": "medium_airport"
  },
  {
    "name": "Island Lake Airport",
    "latitude": 53.857200622558594,
    "longitude": -94.65360260009766,
    "type": "medium_airport"
  },
  {
    "name": "Fort Liard Airport",
    "latitude": 60.235801696799996,
    "longitude": -123.46900177,
    "type": "medium_airport"
  },
  {
    "name": "St Jean Airport",
    "latitude": 45.29439926147461,
    "longitude": -73.28109741210938,
    "type": "medium_airport"
  },
  {
    "name": "Dymond Airport",
    "latitude": 48.544201,
    "longitude": -58.549999,
    "type": "medium_airport"
  },
  {
    "name": "Kamloops John Moose Fulton Field Regional Airport",
    "latitude": 50.703038,
    "longitude": -120.448641,
    "type": "medium_airport"
  },
  {
    "name": "Region of Waterloo International Airport",
    "latitude": 43.4608,
    "longitude": -80.378601,
    "type": "medium_airport"
  },
  {
    "name": "Key Lake Airport",
    "latitude": 57.256099700927734,
    "longitude": -105.61799621582031,
    "type": "medium_airport"
  },
  {
    "name": "Schefferville Airport",
    "latitude": 54.805301666259766,
    "longitude": -66.8052978515625,
    "type": "medium_airport"
  },
  {
    "name": "Kincardine Municipal Airport",
    "latitude": 44.201401,
    "longitude": -81.606697,
    "type": "medium_airport"
  },
  {
    "name": "Kirkland Lake Airport",
    "latitude": 48.21030044555664,
    "longitude": -79.98139953613281,
    "type": "medium_airport"
  },
  {
    "name": "Kindersley Airport",
    "latitude": 51.5175018311,
    "longitude": -109.180999756,
    "type": "medium_airport"
  },
  {
    "name": "Chapleau Airport",
    "latitude": 47.81999969482422,
    "longitude": -83.3467025756836,
    "type": "medium_airport"
  },
  {
    "name": "Meadow Lake Airport",
    "latitude": 54.125301361083984,
    "longitude": -108.52300262451172,
    "type": "medium_airport"
  },
  {
    "name": "Lloydminster Airport",
    "latitude": 53.3092,
    "longitude": -110.072998,
    "type": "medium_airport"
  },
  {
    "name": "Leaf Rapids Airport",
    "latitude": 56.513301849365234,
    "longitude": -99.98529815673828,
    "type": "medium_airport"
  },
  {
    "name": "Barrie-Lake Simcoe Regional Airport",
    "latitude": 44.485056,
    "longitude": -79.554663,
    "type": "medium_airport"
  },
  {
    "name": "Alert Airport",
    "latitude": 82.517799,
    "longitude": -62.280602,
    "type": "medium_airport"
  },
  {
    "name": "Kelowna International Airport",
    "latitude": 49.9561,
    "longitude": -119.377998,
    "type": "medium_airport"
  },
  {
    "name": "Mayo Airport",
    "latitude": 63.61640167236328,
    "longitude": -135.8679962158203,
    "type": "medium_airport"
  },
  {
    "name": "Matane Airport",
    "latitude": 48.85689926147461,
    "longitude": -67.45330047607422,
    "type": "medium_airport"
  },
  {
    "name": "Manitouwadge Airport",
    "latitude": 49.083900451660156,
    "longitude": -85.86060333251953,
    "type": "medium_airport"
  },
  {
    "name": "Moose Jaw Air Vice Marshal C. M. McEwen Airport",
    "latitude": 50.330299377441406,
    "longitude": -105.55899810791016,
    "type": "medium_airport"
  },
  {
    "name": "Charlevoix Airport",
    "latitude": 47.59749984741211,
    "longitude": -70.2238998413086,
    "type": "medium_airport"
  },
  {
    "name": "Fort McMurray Airport",
    "latitude": 56.653301239,
    "longitude": -111.222000122,
    "type": "medium_airport"
  },
  {
    "name": "Moosonee Airport",
    "latitude": 51.291099548339844,
    "longitude": -80.60780334472656,
    "type": "medium_airport"
  },
  {
    "name": "Chapais Airport",
    "latitude": 49.77190017700195,
    "longitude": -74.5280990600586,
    "type": "medium_airport"
  },
  {
    "name": "Montreal International (Mirabel) Airport",
    "latitude": 45.679501,
    "longitude": -74.038696,
    "type": "medium_airport"
  },
  {
    "name": "Natashquan Airport",
    "latitude": 50.190114,
    "longitude": -61.78898,
    "type": "medium_airport"
  },
  {
    "name": "Ottawa / Gatineau Airport",
    "latitude": 45.521702,
    "longitude": -75.563599,
    "type": "medium_airport"
  },
  {
    "name": "Langley Airport",
    "latitude": 49.1008,
    "longitude": -122.630997,
    "type": "medium_airport"
  },
  {
    "name": "Points North Landing Airport",
    "latitude": 58.27669906616211,
    "longitude": -104.08200073242188,
    "type": "medium_airport"
  },
  {
    "name": "Matagami Airport",
    "latitude": 49.76169967651367,
    "longitude": -77.80280303955078,
    "type": "medium_airport"
  },
  {
    "name": "Nejanilini Lake Airport",
    "latitude": 59.4874992371,
    "longitude": -97.78029632570001,
    "type": "medium_airport"
  },
  {
    "name": "Ekati Airport",
    "latitude": 64.6988983154,
    "longitude": -110.614997864,
    "type": "medium_airport"
  },
  {
    "name": "CFB Cold Lake",
    "latitude": 54.404998779296875,
    "longitude": -110.27899932861328,
    "type": "medium_airport"
  },
  {
    "name": "High Level Airport",
    "latitude": 58.62139892578125,
    "longitude": -117.16500091552734,
    "type": "medium_airport"
  },
  {
    "name": "Oshawa Executive Airport",
    "latitude": 43.922798,
    "longitude": -78.894997,
    "type": "medium_airport"
  },
  {
    "name": "Rainbow Lake Airport",
    "latitude": 58.491402,
    "longitude": -119.407997,
    "type": "medium_airport"
  },
  {
    "name": "Owen Sound / Billy Bishop Regional Airport",
    "latitude": 44.5903015137,
    "longitude": -80.8375015259,
    "type": "medium_airport"
  },
  {
    "name": "Ottawa Macdonald-Cartier International Airport",
    "latitude": 45.322498,
    "longitude": -75.669197,
    "type": "large_airport"
  },
  {
    "name": "Prince Albert Glass Field",
    "latitude": 53.214199066199996,
    "longitude": -105.672996521,
    "type": "medium_airport"
  },
  {
    "name": "Port Hawkesbury Airport",
    "latitude": 45.6567001343,
    "longitude": -61.3680992126,
    "type": "medium_airport"
  },
  {
    "name": "Peace River Airport",
    "latitude": 56.226898,
    "longitude": -117.446999,
    "type": "medium_airport"
  },
  {
    "name": "Portage-la-Prairie / Southport Airport",
    "latitude": 49.903099,
    "longitude": -98.273817,
    "type": "medium_airport"
  },
  {
    "name": "Pitt Meadows Airport",
    "latitude": 49.216099,
    "longitude": -122.709999,
    "type": "medium_airport"
  },
  {
    "name": "Pickle Lake Airport",
    "latitude": 51.4463996887207,
    "longitude": -90.21420288085938,
    "type": "medium_airport"
  },
  {
    "name": "Port-Menier Airport",
    "latitude": 49.836399,
    "longitude": -64.288597,
    "type": "medium_airport"
  },
  {
    "name": "Peterborough Municipal Airport",
    "latitude": 44.23,
    "longitude": -78.363297,
    "type": "medium_airport"
  },
  {
    "name": "Prince Rupert Airport",
    "latitude": 54.286098480199996,
    "longitude": -130.445007324,
    "type": "medium_airport"
  },
  {
    "name": "Powell River Airport",
    "latitude": 49.83420181274414,
    "longitude": -124.5,
    "type": "medium_airport"
  },
  {
    "name": "Puvirnituq Airport",
    "latitude": 60.050598,
    "longitude": -77.286903,
    "type": "medium_airport"
  },
  {
    "name": "Fort Chipewyan Airport",
    "latitude": 58.7672004699707,
    "longitude": -111.11699676513672,
    "type": "medium_airport"
  },
  {
    "name": "Burns Lake Airport",
    "latitude": 54.3764,
    "longitude": -125.950996,
    "type": "medium_airport"
  },
  {
    "name": "Muskoka Airport",
    "latitude": 44.975376,
    "longitude": -79.306546,
    "type": "medium_airport"
  },
  {
    "name": "Quebec Jean Lesage International Airport",
    "latitude": 46.7911,
    "longitude": -71.393303,
    "type": "large_airport"
  },
  {
    "name": "The Pas Airport",
    "latitude": 53.97140121459961,
    "longitude": -101.09100341796875,
    "type": "medium_airport"
  },
  {
    "name": "Red Deer Regional Airport",
    "latitude": 52.182201,
    "longitude": -113.893997,
    "type": "medium_airport"
  },
  {
    "name": "Windsor Airport",
    "latitude": 42.27560043334961,
    "longitude": -82.95559692382812,
    "type": "medium_airport"
  },
  {
    "name": "Watson Lake Airport",
    "latitude": 60.116839,
    "longitude": -128.821993,
    "type": "medium_airport"
  },
  {
    "name": "Yarmouth Airport",
    "latitude": 43.826900482177734,
    "longitude": -66.08809661865234,
    "type": "medium_airport"
  },
  {
    "name": "Kenora Airport",
    "latitude": 49.788299560546875,
    "longitude": -94.36309814453125,
    "type": "medium_airport"
  },
  {
    "name": "Lethbridge County Airport",
    "latitude": 49.6302986145,
    "longitude": -112.800003052,
    "type": "medium_airport"
  },
  {
    "name": "Greater Moncton Roméo LeBlanc International Airport",
    "latitude": 46.112202,
    "longitude": -64.678596,
    "type": "medium_airport"
  },
  {
    "name": "Nakina Airport",
    "latitude": 50.18280029296875,
    "longitude": -86.69640350341797,
    "type": "medium_airport"
  },
  {
    "name": "Comox Valley Airport / CFB Comox",
    "latitude": 49.7108,
    "longitude": -124.887001,
    "type": "medium_airport"
  },
  {
    "name": "Regina International Airport",
    "latitude": 50.43190002441406,
    "longitude": -104.66600036621094,
    "type": "medium_airport"
  },
  {
    "name": "St Thomas Municipal Airport",
    "latitude": 42.77000045776367,
    "longitude": -81.11080169677734,
    "type": "medium_airport"
  },
  {
    "name": "Thunder Bay Airport",
    "latitude": 48.37189865112305,
    "longitude": -89.32389831542969,
    "type": "medium_airport"
  },
  {
    "name": "Grande Prairie Airport",
    "latitude": 55.1796989441,
    "longitude": -118.885002136,
    "type": "medium_airport"
  },
  {
    "name": "Yorkton Municipal Airport",
    "latitude": 51.26470184326172,
    "longitude": -102.46199798583984,
    "type": "medium_airport"
  },
  {
    "name": "North Battleford Airport",
    "latitude": 52.769409,
    "longitude": -108.243742,
    "type": "medium_airport"
  },
  {
    "name": "Gander International Airport / CFB Gander",
    "latitude": 48.936258,
    "longitude": -54.567719,
    "type": "medium_airport"
  },
  {
    "name": "Sydney / J.A. Douglas McCurdy Airport",
    "latitude": 46.1614,
    "longitude": -60.047798,
    "type": "medium_airport"
  },
  {
    "name": "Quesnel Airport",
    "latitude": 53.026100158691406,
    "longitude": -122.51000213623047,
    "type": "medium_airport"
  },
  {
    "name": "Resolute Bay Airport",
    "latitude": 74.7169036865,
    "longitude": -94.9693984985,
    "type": "medium_airport"
  },
  {
    "name": "Rivière-du-Loup Airport",
    "latitude": 47.764400482177734,
    "longitude": -69.58470153808594,
    "type": "medium_airport"
  },
  {
    "name": "Roberval Airport",
    "latitude": 48.519665,
    "longitude": -72.265735,
    "type": "medium_airport"
  },
  {
    "name": "Red Lake Airport",
    "latitude": 51.066898345947266,
    "longitude": -93.79309844970703,
    "type": "medium_airport"
  },
  {
    "name": "Ottawa / Rockcliffe Airport",
    "latitude": 45.4603004456,
    "longitude": -75.64610290530001,
    "type": "medium_airport"
  },
  {
    "name": "Ottawa / Carp Airport",
    "latitude": 45.3191986084,
    "longitude": -76.0222015381,
    "type": "medium_airport"
  },
  {
    "name": "Trois-Rivières Airport",
    "latitude": 46.35279846191406,
    "longitude": -72.67939758300781,
    "type": "medium_airport"
  },
  {
    "name": "Rankin Inlet Airport",
    "latitude": 62.8114013672,
    "longitude": -92.1157989502,
    "type": "medium_airport"
  },
  {
    "name": "Revelstoke Airport",
    "latitude": 50.962245,
    "longitude": -118.184258,
    "type": "medium_airport"
  },
  {
    "name": "Sudbury Airport",
    "latitude": 46.625,
    "longitude": -80.79889678955078,
    "type": "medium_airport"
  },
  {
    "name": "Sherbrooke Airport",
    "latitude": 45.438599,
    "longitude": -71.691399,
    "type": "medium_airport"
  },
  {
    "name": "Stony Rapids Airport",
    "latitude": 59.250301361083984,
    "longitude": -105.84100341796875,
    "type": "medium_airport"
  },
  {
    "name": "Saint-Georges Airport",
    "latitude": 46.096401,
    "longitude": -70.714699,
    "type": "medium_airport"
  },
  {
    "name": "Smiths Falls-Montague (Russ Beach) Airport",
    "latitude": 44.945801,
    "longitude": -75.940598,
    "type": "medium_airport"
  },
  {
    "name": "Saint John Airport",
    "latitude": 45.31610107421875,
    "longitude": -65.89029693603516,
    "type": "medium_airport"
  },
  {
    "name": "Saint-Léonard Airport",
    "latitude": 47.157097,
    "longitude": -67.836242,
    "type": "medium_airport"
  },
  {
    "name": "Fort Smith Airport",
    "latitude": 60.020302,
    "longitude": -111.961998,
    "type": "medium_airport"
  },
  {
    "name": "Niagara District Airport",
    "latitude": 43.191598,
    "longitude": -79.171686,
    "type": "medium_airport"
  },
  {
    "name": "Marathon Airport",
    "latitude": 48.75529861450195,
    "longitude": -86.34439849853516,
    "type": "medium_airport"
  },
  {
    "name": "Summerside Airport",
    "latitude": 46.440601,
    "longitude": -63.833599,
    "type": "medium_airport"
  },
  {
    "name": "Pembroke Airport",
    "latitude": 45.86439895629883,
    "longitude": -77.25170135498047,
    "type": "medium_airport"
  },
  {
    "name": "Alma Airport",
    "latitude": 48.5089,
    "longitude": -71.641899,
    "type": "medium_airport"
  },
  {
    "name": "Thompson Airport",
    "latitude": 55.80110168457031,
    "longitude": -97.86419677734375,
    "type": "medium_airport"
  },
  {
    "name": "CFB Trenton",
    "latitude": 44.118900299072266,
    "longitude": -77.5280990600586,
    "type": "medium_airport"
  },
  {
    "name": "Timmins/Victor M. Power",
    "latitude": 48.569698333699996,
    "longitude": -81.376701355,
    "type": "medium_airport"
  },
  {
    "name": "Billy Bishop Toronto City Centre Airport",
    "latitude": 43.627499,
    "longitude": -79.396202,
    "type": "medium_airport"
  },
  {
    "name": "Montreal / Pierre Elliott Trudeau International Airport",
    "latitude": 45.467837,
    "longitude": -73.742294,
    "type": "large_airport"
  },
  {
    "name": "Hall Beach Airport",
    "latitude": 68.7761,
    "longitude": -81.2425,
    "type": "medium_airport"
  },
  {
    "name": "Rouyn Noranda Airport",
    "latitude": 48.20610046386719,
    "longitude": -78.83560180664062,
    "type": "medium_airport"
  },
  {
    "name": "Bonaventure Airport",
    "latitude": 48.071098,
    "longitude": -65.460297,
    "type": "medium_airport"
  },
  {
    "name": "La Ronge Airport",
    "latitude": 55.151401519800004,
    "longitude": -105.262001038,
    "type": "medium_airport"
  },
  {
    "name": "Virden / RJ (Bob) Andrew Field Regional Aerodrome",
    "latitude": 49.8783,
    "longitude": -100.917999,
    "type": "medium_airport"
  },
  {
    "name": "Vernon Regional Airport",
    "latitude": 50.246163,
    "longitude": -119.330963,
    "type": "medium_airport"
  },
  {
    "name": "Val-d'Or Airport",
    "latitude": 48.0532989502,
    "longitude": -77.7827987671,
    "type": "medium_airport"
  },
  {
    "name": "Kuujjuaq Airport",
    "latitude": 58.096099853515625,
    "longitude": -68.4269027709961,
    "type": "medium_airport"
  },
  {
    "name": "Norman Wells Airport",
    "latitude": 65.28160095214844,
    "longitude": -126.7979965209961,
    "type": "medium_airport"
  },
  {
    "name": "Vancouver International Airport",
    "latitude": 49.193901062,
    "longitude": -123.183998108,
    "type": "large_airport"
  },
  {
    "name": "Wiarton Airport",
    "latitude": 44.7458,
    "longitude": -81.107201,
    "type": "medium_airport"
  },
  {
    "name": "Petawawa Airport",
    "latitude": 45.95220184326172,
    "longitude": -77.31919860839844,
    "type": "medium_airport"
  },
  {
    "name": "Winnipeg / James Armstrong Richardson International Airport",
    "latitude": 49.909999847399995,
    "longitude": -97.2398986816,
    "type": "large_airport"
  },
  {
    "name": "Wabush Airport",
    "latitude": 52.92190170288086,
    "longitude": -66.8644027709961,
    "type": "medium_airport"
  },
  {
    "name": "Williams Lake Airport",
    "latitude": 52.1831016541,
    "longitude": -122.054000854,
    "type": "medium_airport"
  },
  {
    "name": "Wrigley Airport",
    "latitude": 63.20940017700195,
    "longitude": -123.43699645996094,
    "type": "medium_airport"
  },
  {
    "name": "Cranbrook/Canadian Rockies International Airport",
    "latitude": 49.610801696777,
    "longitude": -115.78199768066,
    "type": "medium_airport"
  },
  {
    "name": "Saskatoon John G. Diefenbaker International Airport",
    "latitude": 52.170799255371094,
    "longitude": -106.69999694824219,
    "type": "medium_airport"
  },
  {
    "name": "Medicine Hat Regional Airport",
    "latitude": 50.018902,
    "longitude": -110.721001,
    "type": "medium_airport"
  },
  {
    "name": "Fort St John / North Peace Regional Airport",
    "latitude": 56.238098,
    "longitude": -120.739998,
    "type": "medium_airport"
  },
  {
    "name": "Rimouski Airport",
    "latitude": 48.477644,
    "longitude": -68.496323,
    "type": "medium_airport"
  },
  {
    "name": "Sioux Lookout Airport",
    "latitude": 50.11389923095703,
    "longitude": -91.9052963256836,
    "type": "medium_airport"
  },
  {
    "name": "Beaver Creek Airport",
    "latitude": 62.410301208496094,
    "longitude": -140.86700439453125,
    "type": "medium_airport"
  },
  {
    "name": "Earlton (Timiskaming Regional) Airport",
    "latitude": 47.697400654599996,
    "longitude": -79.8473453522,
    "type": "medium_airport"
  },
  {
    "name": "Prince George Airport",
    "latitude": 53.884311,
    "longitude": -122.666554,
    "type": "medium_airport"
  },
  {
    "name": "Northwest Regional Airport Terrace-Kitimat",
    "latitude": 54.468498,
    "longitude": -128.576009,
    "type": "medium_airport"
  },
  {
    "name": "London Airport",
    "latitude": 43.035599,
    "longitude": -81.1539,
    "type": "medium_airport"
  },
  {
    "name": "Abbotsford International Airport",
    "latitude": 49.025299,
    "longitude": -122.361,
    "type": "medium_airport"
  },
  {
    "name": "Whitehorse / Erik Nielsen International Airport",
    "latitude": 60.709599,
    "longitude": -135.067001,
    "type": "medium_airport"
  },
  {
    "name": "Wawa Airport",
    "latitude": 47.96670150756836,
    "longitude": -84.78669738769531,
    "type": "medium_airport"
  },
  {
    "name": "North Bay Jack Garland Airport",
    "latitude": 46.363602,
    "longitude": -79.422798,
    "type": "medium_airport"
  },
  {
    "name": "Calgary International Airport",
    "latitude": 51.118822,
    "longitude": -114.009933,
    "type": "large_airport"
  },
  {
    "name": "Smithers Airport",
    "latitude": 54.82469940185547,
    "longitude": -127.18299865722656,
    "type": "medium_airport"
  },
  {
    "name": "Fort Nelson Airport",
    "latitude": 58.8363990784,
    "longitude": -122.597000122,
    "type": "medium_airport"
  },
  {
    "name": "Penticton Airport",
    "latitude": 49.46310043334961,
    "longitude": -119.60199737548828,
    "type": "medium_airport"
  },
  {
    "name": "Charlottetown Airport",
    "latitude": 46.290000915527344,
    "longitude": -63.12110137939453,
    "type": "medium_airport"
  },
  {
    "name": "Victoria International Airport",
    "latitude": 48.647201,
    "longitude": -123.427792,
    "type": "medium_airport"
  },
  {
    "name": "Lynn Lake Airport",
    "latitude": 56.86389923095703,
    "longitude": -101.07599639892578,
    "type": "medium_airport"
  },
  {
    "name": "Swift Current Airport",
    "latitude": 50.291900634799994,
    "longitude": -107.691001892,
    "type": "medium_airport"
  },
  {
    "name": "Churchill Airport",
    "latitude": 58.739200592041016,
    "longitude": -94.06500244140625,
    "type": "medium_airport"
  },
  {
    "name": "Goose Bay Airport",
    "latitude": 53.3191986084,
    "longitude": -60.4258003235,
    "type": "medium_airport"
  },
  {
    "name": "St. John's International Airport",
    "latitude": 47.618599,
    "longitude": -52.7519,
    "type": "large_airport"
  },
  {
    "name": "Kapuskasing Airport",
    "latitude": 49.411587,
    "longitude": -82.469645,
    "type": "medium_airport"
  },
  {
    "name": "Armstrong Airport",
    "latitude": 50.29029846191406,
    "longitude": -88.90969848632812,
    "type": "medium_airport"
  },
  {
    "name": "Mont Joli Airport",
    "latitude": 48.60860061645508,
    "longitude": -68.20809936523438,
    "type": "medium_airport"
  },
  {
    "name": "Toronto Lester B. Pearson International Airport",
    "latitude": 43.6772,
    "longitude": -79.6306,
    "type": "large_airport"
  },
  {
    "name": "Downsview Airport",
    "latitude": 43.7425,
    "longitude": -79.465599,
    "type": "medium_airport"
  },
  {
    "name": "Gore Bay Manitoulin Airport",
    "latitude": 45.8853,
    "longitude": -82.567802,
    "type": "medium_airport"
  },
  {
    "name": "Yellowknife International Airport",
    "latitude": 62.462799,
    "longitude": -114.440002,
    "type": "medium_airport"
  },
  {
    "name": "Slave Lake Airport",
    "latitude": 55.292945,
    "longitude": -114.777276,
    "type": "medium_airport"
  },
  {
    "name": "Sandspit Airport",
    "latitude": 53.25429916379999,
    "longitude": -131.813995361,
    "type": "medium_airport"
  },
  {
    "name": "Chris Hadfield Airport",
    "latitude": 42.999401,
    "longitude": -82.308899,
    "type": "medium_airport"
  },
  {
    "name": "Coral Harbour Airport",
    "latitude": 64.1932983398,
    "longitude": -83.3593978882,
    "type": "medium_airport"
  },
  {
    "name": "Port Hardy Airport",
    "latitude": 50.680599212646484,
    "longitude": -127.36699676513672,
    "type": "medium_airport"
  },
  {
    "name": "Whitecourt Airport",
    "latitude": 54.143902,
    "longitude": -115.787003,
    "type": "medium_airport"
  },
  {
    "name": "Sept-Îles Airport",
    "latitude": 50.22330093383789,
    "longitude": -66.2656021118164,
    "type": "medium_airport"
  },
  {
    "name": "Teslin Airport",
    "latitude": 60.17279815673828,
    "longitude": -132.7429962158203,
    "type": "medium_airport"
  },
  {
    "name": "CFB Greenwood",
    "latitude": 44.98440170288086,
    "longitude": -64.91690063476562,
    "type": "medium_airport"
  },
  {
    "name": "Mackenzie Airport",
    "latitude": 55.297786,
    "longitude": -123.133907,
    "type": "medium_airport"
  },
  {
    "name": "Shuswap Regional Airport",
    "latitude": 50.682802,
    "longitude": -119.228996,
    "type": "medium_airport"
  },
  {
    "name": "Boundary Bay Airport",
    "latitude": 49.0742,
    "longitude": -123.012001,
    "type": "medium_airport"
  },
  {
    "name": "Bathurst Airport",
    "latitude": 47.6297,
    "longitude": -65.738899,
    "type": "medium_airport"
  },
  {
    "name": "Bromont (Roland Désourdy) Airport",
    "latitude": 45.290798,
    "longitude": -72.741402,
    "type": "medium_airport"
  },
  {
    "name": "Kelsey Airport",
    "latitude": 56.0374984741,
    "longitude": -96.50969696039999,
    "type": "medium_airport"
  },
  {
    "name": "Faro Airport",
    "latitude": 62.20750045776367,
    "longitude": -133.37600708007812,
    "type": "medium_airport"
  },
  {
    "name": "Grand Forks Airport",
    "latitude": 49.015598,
    "longitude": -118.431,
    "type": "medium_airport"
  },
  {
    "name": "Jenpeg Airport",
    "latitude": 54.51890182495117,
    "longitude": -98.04609680175781,
    "type": "medium_airport"
  },
  {
    "name": "Swan River Airport",
    "latitude": 52.120602,
    "longitude": -101.236,
    "type": "medium_airport"
  },
  {
    "name": "Thicket Portage Airport",
    "latitude": 55.31890106201172,
    "longitude": -97.70780181884766,
    "type": "medium_airport"
  },
  {
    "name": "Pikwitonei Airport",
    "latitude": 55.58890151977539,
    "longitude": -97.16419982910156,
    "type": "medium_airport"
  },
  {
    "name": "Masset Airport",
    "latitude": 54.0275,
    "longitude": -132.125,
    "type": "medium_airport"
  },
  {
    "name": "Pincher Creek Airport",
    "latitude": 49.520429,
    "longitude": -113.997002,
    "type": "medium_airport"
  },
  {
    "name": "Sandy Lake Airport",
    "latitude": 53.06420135498047,
    "longitude": -93.34439849853516,
    "type": "medium_airport"
  },
  {
    "name": "Stewart Airport",
    "latitude": 55.935410448,
    "longitude": -129.982434511,
    "type": "medium_airport"
  },
  {
    "name": "Ignace Municipal Airport",
    "latitude": 49.428204,
    "longitude": -91.720418,
    "type": "medium_airport"
  },
  {
    "name": "Blida Airport",
    "latitude": 36.503601,
    "longitude": 2.81417,
    "type": "medium_airport"
  },
  {
    "name": "Bou Saada Airport",
    "latitude": 35.3325,
    "longitude": 4.20639,
    "type": "medium_airport"
  },
  {
    "name": "Soummam–Abane Ramdane Airport",
    "latitude": 36.711952,
    "longitude": 5.069804,
    "type": "medium_airport"
  },
  {
    "name": "Houari Boumediene Airport",
    "latitude": 36.693886,
    "longitude": 3.214531,
    "type": "large_airport"
  },
  {
    "name": "Djanet Inedbirene Airport",
    "latitude": 24.292801,
    "longitude": 9.45244,
    "type": "medium_airport"
  },
  {
    "name": "Boufarik Air Base",
    "latitude": 36.545799,
    "longitude": 2.87611,
    "type": "medium_airport"
  },
  {
    "name": "Illizi Takhamalt Airport",
    "latitude": 26.723499,
    "longitude": 8.62265,
    "type": "medium_airport"
  },
  {
    "name": "Ain Arnat Airport",
    "latitude": 36.178100585900005,
    "longitude": 5.3244900703399995,
    "type": "medium_airport"
  },
  {
    "name": "Aguenar – Hadj Bey Akhamok Airport",
    "latitude": 22.811501,
    "longitude": 5.45108,
    "type": "medium_airport"
  },
  {
    "name": "Jijel Ferhat Abbas Airport",
    "latitude": 36.795101,
    "longitude": 5.87361,
    "type": "medium_airport"
  },
  {
    "name": "Mecheria Airport",
    "latitude": 33.535900116,
    "longitude": -0.242353007197,
    "type": "medium_airport"
  },
  {
    "name": "Relizane Airport",
    "latitude": 35.752955,
    "longitude": 0.625877,
    "type": "medium_airport"
  },
  {
    "name": "Annaba Rabah Bitat Airport",
    "latitude": 36.826781,
    "longitude": 7.81334,
    "type": "medium_airport"
  },
  {
    "name": "Mohamed Boudiaf International Airport",
    "latitude": 36.2760009765625,
    "longitude": 6.620389938354492,
    "type": "medium_airport"
  },
  {
    "name": "Cheikh Larbi Tébessi Airport",
    "latitude": 35.4315986633,
    "longitude": 8.12071990967,
    "type": "medium_airport"
  },
  {
    "name": "Batna Mostefa Ben Boulaid Airport",
    "latitude": 35.752102,
    "longitude": 6.30859,
    "type": "medium_airport"
  },
  {
    "name": "Hassi R'Mel Airport",
    "latitude": 32.930401,
    "longitude": 3.31154,
    "type": "medium_airport"
  },
  {
    "name": "Abdelhafid Boussouf Bou Chekif Airport",
    "latitude": 35.341099,
    "longitude": 1.46315,
    "type": "medium_airport"
  },
  {
    "name": "Tindouf Airport",
    "latitude": 27.7003993988,
    "longitude": -8.167099952700001,
    "type": "medium_airport"
  },
  {
    "name": "Chlef Aboubakr Belkaid International Airport",
    "latitude": 36.217166,
    "longitude": 1.342237,
    "type": "medium_airport"
  },
  {
    "name": "Oran Tafraoui Airport",
    "latitude": 35.5424,
    "longitude": -0.532278,
    "type": "medium_airport"
  },
  {
    "name": "Zenata – Messali El Hadj Airport",
    "latitude": 35.013426,
    "longitude": -1.457191,
    "type": "medium_airport"
  },
  {
    "name": "Oran Es-Sénia (Ahmed Ben Bella) International Airport",
    "latitude": 35.623901,
    "longitude": -0.621183,
    "type": "medium_airport"
  },
  {
    "name": "Béchar Boudghene Ben Ali Lotfi Airport",
    "latitude": 31.645700454711914,
    "longitude": -2.269860029220581,
    "type": "medium_airport"
  },
  {
    "name": "Ghriss Airport",
    "latitude": 35.207699,
    "longitude": 0.147142,
    "type": "medium_airport"
  },
  {
    "name": "Touat Cheikh Sidi Mohamed Belkebir Airport",
    "latitude": 27.837601,
    "longitude": -0.186414,
    "type": "medium_airport"
  },
  {
    "name": "Biskra - Mohamed Khider Airport",
    "latitude": 34.793301,
    "longitude": 5.73823,
    "type": "medium_airport"
  },
  {
    "name": "El Golea Airport",
    "latitude": 30.580732,
    "longitude": 2.861595,
    "type": "medium_airport"
  },
  {
    "name": "Noumérat - Moufdi Zakaria Airport",
    "latitude": 32.384102,
    "longitude": 3.79411,
    "type": "medium_airport"
  },
  {
    "name": "Hassi Messaoud-Oued Irara Krim Belkacem Airport",
    "latitude": 31.673,
    "longitude": 6.14044,
    "type": "medium_airport"
  },
  {
    "name": "In Salah Airport",
    "latitude": 27.250999,
    "longitude": 2.51202,
    "type": "medium_airport"
  },
  {
    "name": "Touggourt Sidi Madhi Airport",
    "latitude": 33.067799,
    "longitude": 6.08867,
    "type": "medium_airport"
  },
  {
    "name": "Laghouat - Molay Ahmed Medeghri Airport",
    "latitude": 33.7644,
    "longitude": 2.92834,
    "type": "medium_airport"
  },
  {
    "name": "Guemar Airport",
    "latitude": 33.5113983154,
    "longitude": 6.77679014206,
    "type": "medium_airport"
  },
  {
    "name": "Timimoun Airport",
    "latitude": 29.237101,
    "longitude": 0.276033,
    "type": "medium_airport"
  },
  {
    "name": "Ain Beida Airport",
    "latitude": 31.9172,
    "longitude": 5.41278,
    "type": "medium_airport"
  },
  {
    "name": "Zarzaitine - In Aménas Airport",
    "latitude": 28.0515,
    "longitude": 9.64291,
    "type": "medium_airport"
  },
  {
    "name": "Cadjehoun Airport",
    "latitude": 6.357230186462402,
    "longitude": 2.384350061416626,
    "type": "medium_airport"
  },
  {
    "name": "Baicheng Chang'an Airport",
    "latitude": 45.505278,
    "longitude": 123.019722,
    "type": "medium_airport"
  },
  {
    "name": "Ouagadougou Airport",
    "latitude": 12.3532,
    "longitude": -1.51242,
    "type": "medium_airport"
  },
  {
    "name": "Bobo Dioulasso Airport",
    "latitude": 11.160099983215332,
    "longitude": -4.33096981048584,
    "type": "medium_airport"
  },
  {
    "name": "Kotoka International Airport",
    "latitude": 5.605189800262451,
    "longitude": -0.16678600013256073,
    "type": "large_airport"
  },
  {
    "name": "Ho Airport",
    "latitude": 6.579691,
    "longitude": 0.532547,
    "type": "medium_airport"
  },
  {
    "name": "Tamale Airport",
    "latitude": 9.55718994140625,
    "longitude": -0.8632140159606934,
    "type": "medium_airport"
  },
  {
    "name": "Kumasi Airport",
    "latitude": 6.714560031890869,
    "longitude": -1.5908199548721313,
    "type": "medium_airport"
  },
  {
    "name": "Sunyani Airport",
    "latitude": 7.36183,
    "longitude": -2.32876,
    "type": "medium_airport"
  },
  {
    "name": "Takoradi Airport",
    "latitude": 4.896059989929199,
    "longitude": -1.7747600078582764,
    "type": "medium_airport"
  },
  {
    "name": "Félix-Houphouët-Boigny International Airport",
    "latitude": 5.26139,
    "longitude": -3.92629,
    "type": "medium_airport"
  },
  {
    "name": "Bouaké Airport",
    "latitude": 7.7388,
    "longitude": -5.07367,
    "type": "medium_airport"
  },
  {
    "name": "Daloa Airport",
    "latitude": 6.79281,
    "longitude": -6.47319,
    "type": "medium_airport"
  },
  {
    "name": "Korhogo Airport",
    "latitude": 9.38718,
    "longitude": -5.55666,
    "type": "medium_airport"
  },
  {
    "name": "Man Airport",
    "latitude": 7.27207,
    "longitude": -7.58736,
    "type": "medium_airport"
  },
  {
    "name": "San Pedro Airport",
    "latitude": 4.74672,
    "longitude": -6.66082,
    "type": "medium_airport"
  },
  {
    "name": "Yamoussoukro Airport",
    "latitude": 6.9031701088,
    "longitude": -5.36558008194,
    "type": "medium_airport"
  },
  {
    "name": "Nnamdi Azikiwe International Airport",
    "latitude": 9.00679,
    "longitude": 7.26317,
    "type": "large_airport"
  },
  {
    "name": "Akwa Ibom International Airport",
    "latitude": 4.8725,
    "longitude": 8.093,
    "type": "medium_airport"
  },
  {
    "name": "Akure Airport",
    "latitude": 7.246739864349365,
    "longitude": 5.3010101318359375,
    "type": "medium_airport"
  },
  {
    "name": "Asaba International Airport",
    "latitude": 6.204167,
    "longitude": 6.665278,
    "type": "medium_airport"
  },
  {
    "name": "Sir Abubakar Tafawa Balewa International Airport",
    "latitude": 10.482833,
    "longitude": 9.744,
    "type": "medium_airport"
  },
  {
    "name": "Benin Airport",
    "latitude": 6.316979885101318,
    "longitude": 5.5995001792907715,
    "type": "medium_airport"
  },
  {
    "name": "Bayelsa International Airport",
    "latitude": 4.95759,
    "longitude": 6.203327,
    "type": "medium_airport"
  },
  {
    "name": "Margaret Ekpo International Airport",
    "latitude": 4.976019859313965,
    "longitude": 8.347200393676758,
    "type": "medium_airport"
  },
  {
    "name": "Akanu Ibiam International Airport",
    "latitude": 6.474269866943359,
    "longitude": 7.561960220336914,
    "type": "medium_airport"
  },
  {
    "name": "Gusau Airport",
    "latitude": 12.1717,
    "longitude": 6.69611,
    "type": "medium_airport"
  },
  {
    "name": "Ibadan Airport",
    "latitude": 7.362460136413574,
    "longitude": 3.97832989692688,
    "type": "medium_airport"
  },
  {
    "name": "Ilorin International Airport",
    "latitude": 8.440210342407227,
    "longitude": 4.493919849395752,
    "type": "medium_airport"
  },
  {
    "name": "Sam Mbakwe International Airport",
    "latitude": 5.427060127258301,
    "longitude": 7.206029891967773,
    "type": "medium_airport"
  },
  {
    "name": "Yakubu Gowon Airport",
    "latitude": 9.639829635620117,
    "longitude": 8.869050025939941,
    "type": "medium_airport"
  },
  {
    "name": "Kaduna Airport",
    "latitude": 10.696000099182129,
    "longitude": 7.320109844207764,
    "type": "medium_airport"
  },
  {
    "name": "Mallam Aminu International Airport",
    "latitude": 12.0476,
    "longitude": 8.52462,
    "type": "medium_airport"
  },
  {
    "name": "Maiduguri International Airport",
    "latitude": 11.855299949645996,
    "longitude": 13.080900192260742,
    "type": "medium_airport"
  },
  {
    "name": "Makurdi Airport",
    "latitude": 7.70388,
    "longitude": 8.61394,
    "type": "medium_airport"
  },
  {
    "name": "Murtala Muhammed International Airport",
    "latitude": 6.5773701667785645,
    "longitude": 3.321160078048706,
    "type": "large_airport"
  },
  {
    "name": "Minna Airport",
    "latitude": 9.652170181274414,
    "longitude": 6.462259769439697,
    "type": "medium_airport"
  },
  {
    "name": "Port Harcourt International Airport",
    "latitude": 5.0154900550842285,
    "longitude": 6.94959020614624,
    "type": "medium_airport"
  },
  {
    "name": "Sadiq Abubakar III International Airport",
    "latitude": 12.916299819946289,
    "longitude": 5.207190036773682,
    "type": "medium_airport"
  },
  {
    "name": "Yola Airport",
    "latitude": 9.257550239562988,
    "longitude": 12.430399894714355,
    "type": "medium_airport"
  },
  {
    "name": "Zaria Airport",
    "latitude": 11.1302,
    "longitude": 7.68581,
    "type": "medium_airport"
  },
  {
    "name": "Maradi Airport",
    "latitude": 13.5025,
    "longitude": 7.12675,
    "type": "medium_airport"
  },
  {
    "name": "Diori Hamani International Airport",
    "latitude": 13.4815,
    "longitude": 2.18361,
    "type": "large_airport"
  },
  {
    "name": "Tahoua Airport",
    "latitude": 14.8757,
    "longitude": 5.26536,
    "type": "medium_airport"
  },
  {
    "name": "Mano Dayak International Airport",
    "latitude": 16.965999603271484,
    "longitude": 8.000109672546387,
    "type": "medium_airport"
  },
  {
    "name": "Zinder Airport",
    "latitude": 13.779000282287598,
    "longitude": 8.983759880065918,
    "type": "medium_airport"
  },
  {
    "name": "Tabarka-Aïn Draham International Airport",
    "latitude": 36.98,
    "longitude": 8.87694,
    "type": "medium_airport"
  },
  {
    "name": "Monastir Habib Bourguiba International Airport",
    "latitude": 35.75809860229492,
    "longitude": 10.75469970703125,
    "type": "medium_airport"
  },
  {
    "name": "Enfidha - Hammamet International Airport",
    "latitude": 36.075833,
    "longitude": 10.438611,
    "type": "medium_airport"
  },
  {
    "name": "Tunis Carthage International Airport",
    "latitude": 36.851002,
    "longitude": 10.2272,
    "type": "large_airport"
  },
  {
    "name": "Bizerte Sidi Ahmed Air Base",
    "latitude": 37.242356,
    "longitude": 9.787016,
    "type": "medium_airport"
  },
  {
    "name": "Remada Air Base",
    "latitude": 32.306198,
    "longitude": 10.3821,
    "type": "medium_airport"
  },
  {
    "name": "Gafsa Ksar International Airport",
    "latitude": 34.422000885009766,
    "longitude": 8.822500228881836,
    "type": "medium_airport"
  },
  {
    "name": "Gabès Matmata International Airport",
    "latitude": 33.733691,
    "longitude": 9.91941,
    "type": "medium_airport"
  },
  {
    "name": "Djerba Zarzis International Airport",
    "latitude": 33.875,
    "longitude": 10.7755,
    "type": "medium_airport"
  },
  {
    "name": "El Borma Airport",
    "latitude": 31.7043,
    "longitude": 9.25462,
    "type": "medium_airport"
  },
  {
    "name": "Sfax Thyna International Airport",
    "latitude": 34.71799850463867,
    "longitude": 10.690999984741211,
    "type": "medium_airport"
  },
  {
    "name": "Tozeur Nefta International Airport",
    "latitude": 33.939701080322266,
    "longitude": 8.110560417175293,
    "type": "medium_airport"
  },
  {
    "name": "Niamtougou International Airport",
    "latitude": 9.767330169677734,
    "longitude": 1.091249942779541,
    "type": "medium_airport"
  },
  {
    "name": "Lomé–Tokoin International Airport",
    "latitude": 6.16561,
    "longitude": 1.25451,
    "type": "medium_airport"
  },
  {
    "name": "Amguid Regional Airport",
    "latitude": 26.393417,
    "longitude": 5.325419,
    "type": "medium_airport"
  },
  {
    "name": "Dazhou Jinya Airport",
    "latitude": 31.048815,
    "longitude": 107.435646,
    "type": "medium_airport"
  },
  {
    "name": "Antwerp International Airport (Deurne)",
    "latitude": 51.190667,
    "longitude": 4.463153,
    "type": "medium_airport"
  },
  {
    "name": "Beauvechain Air Base",
    "latitude": 50.758598,
    "longitude": 4.76833,
    "type": "medium_airport"
  },
  {
    "name": "Kleine Brogel Air Base",
    "latitude": 51.168301,
    "longitude": 5.47,
    "type": "medium_airport"
  },
  {
    "name": "Brussels Airport",
    "latitude": 50.901402,
    "longitude": 4.48444,
    "type": "large_airport"
  },
  {
    "name": "Brussels South Charleroi Airport",
    "latitude": 50.460982,
    "longitude": 4.457158,
    "type": "medium_airport"
  },
  {
    "name": "Chièvres Air Base",
    "latitude": 50.575801849365234,
    "longitude": 3.8310000896453857,
    "type": "medium_airport"
  },
  {
    "name": "Koksijde Air Base",
    "latitude": 51.090302,
    "longitude": 2.65278,
    "type": "medium_airport"
  },
  {
    "name": "Florennes Air Base",
    "latitude": 50.2433013916,
    "longitude": 4.64583015442,
    "type": "medium_airport"
  },
  {
    "name": "Flanders International Airport Kortrijk-Wevelgem",
    "latitude": 50.818878,
    "longitude": 3.209551,
    "type": "medium_airport"
  },
  {
    "name": "Liège Airport",
    "latitude": 50.638574,
    "longitude": 5.443897,
    "type": "medium_airport"
  },
  {
    "name": "Oostende-Brugge International Airport",
    "latitude": 51.1998,
    "longitude": 2.874673,
    "type": "medium_airport"
  },
  {
    "name": "Leipzig–Altenburg Airport",
    "latitude": 50.981945,
    "longitude": 12.506389,
    "type": "medium_airport"
  },
  {
    "name": "Heringsdorf Airport",
    "latitude": 53.8787,
    "longitude": 14.1523,
    "type": "medium_airport"
  },
  {
    "name": "Neubrandenburg Trollenhagen Airport",
    "latitude": 53.6022,
    "longitude": 13.306,
    "type": "medium_airport"
  },
  {
    "name": "Rothenburg/Görlitz Airfield",
    "latitude": 51.363335,
    "longitude": 14.95,
    "type": "medium_airport"
  },
  {
    "name": "Berlin Brandenburg Airport",
    "latitude": 52.362247,
    "longitude": 13.500672,
    "type": "large_airport"
  },
  {
    "name": "Dresden Airport",
    "latitude": 51.134123,
    "longitude": 13.767831,
    "type": "medium_airport"
  },
  {
    "name": "Erfurt-Weimar Airport",
    "latitude": 50.979801,
    "longitude": 10.9581,
    "type": "medium_airport"
  },
  {
    "name": "Frankfurt Airport",
    "latitude": 50.030241,
    "longitude": 8.561096,
    "type": "large_airport"
  },
  {
    "name": "Münster Osnabrück Airport",
    "latitude": 52.134602,
    "longitude": 7.68483,
    "type": "medium_airport"
  },
  {
    "name": "Hamburg Helmut Schmidt Airport",
    "latitude": 53.630402,
    "longitude": 9.98823,
    "type": "large_airport"
  },
  {
    "name": "Cologne Bonn Airport",
    "latitude": 50.865898,
    "longitude": 7.14274,
    "type": "large_airport"
  },
  {
    "name": "Düsseldorf Airport",
    "latitude": 51.289501,
    "longitude": 6.76678,
    "type": "large_airport"
  },
  {
    "name": "Munich Airport",
    "latitude": 48.353802,
    "longitude": 11.7861,
    "type": "large_airport"
  },
  {
    "name": "Nuremberg Airport",
    "latitude": 49.498699,
    "longitude": 11.078056,
    "type": "large_airport"
  },
  {
    "name": "Leipzig/Halle Airport",
    "latitude": 51.420657,
    "longitude": 12.232705,
    "type": "large_airport"
  },
  {
    "name": "Saarbrücken Airport",
    "latitude": 49.214599609400004,
    "longitude": 7.10950994492,
    "type": "medium_airport"
  },
  {
    "name": "Stuttgart Airport",
    "latitude": 48.689899,
    "longitude": 9.22196,
    "type": "large_airport"
  },
  {
    "name": "Hannover Airport",
    "latitude": 52.461102,
    "longitude": 9.68508,
    "type": "large_airport"
  },
  {
    "name": "Bremen Airport",
    "latitude": 53.046786,
    "longitude": 8.78932,
    "type": "medium_airport"
  },
  {
    "name": "Frankfurt-Egelsbach Airport",
    "latitude": 49.96,
    "longitude": 8.643043,
    "type": "medium_airport"
  },
  {
    "name": "Frankfurt-Hahn Airport",
    "latitude": 49.9487,
    "longitude": 7.26389,
    "type": "medium_airport"
  },
  {
    "name": "Mannheim-City Airport",
    "latitude": 49.473057,
    "longitude": 8.514167,
    "type": "medium_airport"
  },
  {
    "name": "Mainz-Finthen Airfield",
    "latitude": 49.967499,
    "longitude": 8.147222,
    "type": "medium_airport"
  },
  {
    "name": "Eisenach-Kindel Airport",
    "latitude": 50.991604,
    "longitude": 10.47973,
    "type": "medium_airport"
  },
  {
    "name": "Siegerland Airport",
    "latitude": 50.707699,
    "longitude": 8.08297,
    "type": "medium_airport"
  },
  {
    "name": "Hamburg-Finkenwerder Airport",
    "latitude": 53.5352783203125,
    "longitude": 9.835556030273438,
    "type": "medium_airport"
  },
  {
    "name": "Kiel-Holtenau Airport",
    "latitude": 54.37957,
    "longitude": 10.145266,
    "type": "medium_airport"
  },
  {
    "name": "Lübeck Blankensee Airport",
    "latitude": 53.805401,
    "longitude": 10.7192,
    "type": "medium_airport"
  },
  {
    "name": "Memmingen Allgau Airport",
    "latitude": 47.988800048799995,
    "longitude": 10.2395000458,
    "type": "medium_airport"
  },
  {
    "name": "Mönchengladbach Airport",
    "latitude": 51.230278,
    "longitude": 6.504444,
    "type": "medium_airport"
  },
  {
    "name": "Paderborn Lippstadt Airport",
    "latitude": 51.614101,
    "longitude": 8.61632,
    "type": "medium_airport"
  },
  {
    "name": "Weeze Airport",
    "latitude": 51.6024017334,
    "longitude": 6.14216995239,
    "type": "medium_airport"
  },
  {
    "name": "Dortmund Airport",
    "latitude": 51.518299,
    "longitude": 7.61224,
    "type": "medium_airport"
  },
  {
    "name": "Augsburg Airport",
    "latitude": 48.425278,
    "longitude": 10.931667,
    "type": "medium_airport"
  },
  {
    "name": "Oberpfaffenhofen Airport",
    "latitude": 48.081402,
    "longitude": 11.2831,
    "type": "medium_airport"
  },
  {
    "name": "Friedrichshafen Airport",
    "latitude": 47.671299,
    "longitude": 9.51149,
    "type": "medium_airport"
  },
  {
    "name": "Bamberg-Breitenau Airfield",
    "latitude": 49.920403,
    "longitude": 10.914233,
    "type": "medium_airport"
  },
  {
    "name": "Bayreuth Airport",
    "latitude": 49.985001,
    "longitude": 11.64,
    "type": "medium_airport"
  },
  {
    "name": "Hof-Plauen Airport",
    "latitude": 50.288544,
    "longitude": 11.852876,
    "type": "medium_airport"
  },
  {
    "name": "Karlsruhe Baden-Baden Airport",
    "latitude": 48.7794,
    "longitude": 8.0805,
    "type": "medium_airport"
  },
  {
    "name": "Donaueschingen-Villingen Airfield",
    "latitude": 47.973331,
    "longitude": 8.522222,
    "type": "medium_airport"
  },
  {
    "name": "Lahr Airport",
    "latitude": 48.369301,
    "longitude": 7.82772,
    "type": "medium_airport"
  },
  {
    "name": "Adolf Würth Airport",
    "latitude": 49.118332,
    "longitude": 9.783889,
    "type": "medium_airport"
  },
  {
    "name": "Zerbst Airfield",
    "latitude": 52.000832,
    "longitude": 12.148611,
    "type": "medium_airport"
  },
  {
    "name": "Braunschweig-Wolfsburg Airport",
    "latitude": 52.319199,
    "longitude": 10.5561,
    "type": "medium_airport"
  },
  {
    "name": "Kassel Airport",
    "latitude": 51.420699,
    "longitude": 9.392152,
    "type": "medium_airport"
  },
  {
    "name": "Westerland Sylt Airport",
    "latitude": 54.9132,
    "longitude": 8.34047,
    "type": "medium_airport"
  },
  {
    "name": "Ämari Air Base",
    "latitude": 59.259599,
    "longitude": 24.204799,
    "type": "medium_airport"
  },
  {
    "name": "Kärdla Airport",
    "latitude": 58.99079895019531,
    "longitude": 22.830699920654297,
    "type": "medium_airport"
  },
  {
    "name": "Kuressaare Airport",
    "latitude": 58.22990036010742,
    "longitude": 22.50950050354004,
    "type": "medium_airport"
  },
  {
    "name": "Pärnu Airport",
    "latitude": 58.41899871826172,
    "longitude": 24.47279930114746,
    "type": "medium_airport"
  },
  {
    "name": "Berenice International Airport / Banas Cape Air Base",
    "latitude": 23.980437,
    "longitude": 35.460277,
    "type": "medium_airport"
  },
  {
    "name": "Lennart Meri Tallinn Airport",
    "latitude": 59.413246,
    "longitude": 24.83264,
    "type": "large_airport"
  },
  {
    "name": "Tartu Airport",
    "latitude": 58.307499,
    "longitude": 26.690399,
    "type": "medium_airport"
  },
  {
    "name": "Enontekio Airport",
    "latitude": 68.362602233887,
    "longitude": 23.424299240112,
    "type": "medium_airport"
  },
  {
    "name": "Halli Airport",
    "latitude": 61.856039,
    "longitude": 24.786686,
    "type": "medium_airport"
  },
  {
    "name": "Helsinki Vantaa Airport",
    "latitude": 60.318363,
    "longitude": 24.963341,
    "type": "large_airport"
  },
  {
    "name": "Kitee Airport",
    "latitude": 62.1661,
    "longitude": 30.073601,
    "type": "medium_airport"
  },
  {
    "name": "Ivalo Airport",
    "latitude": 68.607299804688,
    "longitude": 27.405300140381,
    "type": "medium_airport"
  },
  {
    "name": "Joensuu Airport",
    "latitude": 62.658815,
    "longitude": 29.619398,
    "type": "medium_airport"
  },
  {
    "name": "Jyväskylä Airport",
    "latitude": 62.399502,
    "longitude": 25.678301,
    "type": "medium_airport"
  },
  {
    "name": "Kauhava Airfield",
    "latitude": 63.127102,
    "longitude": 23.051399,
    "type": "medium_airport"
  },
  {
    "name": "Kemi-Tornio Airport",
    "latitude": 65.778701782227,
    "longitude": 24.582099914551,
    "type": "medium_airport"
  },
  {
    "name": "Kajaani Airport",
    "latitude": 64.2855,
    "longitude": 27.6924,
    "type": "medium_airport"
  },
  {
    "name": "Kauhajoki Airfield",
    "latitude": 62.463212,
    "longitude": 22.390817,
    "type": "medium_airport"
  },
  {
    "name": "Kokkola-Pietarsaari Airport",
    "latitude": 63.721199,
    "longitude": 23.143101,
    "type": "medium_airport"
  },
  {
    "name": "Kuusamo Airport",
    "latitude": 65.987602,
    "longitude": 29.239401,
    "type": "medium_airport"
  },
  {
    "name": "Kittilä Airport",
    "latitude": 67.700996398926,
    "longitude": 24.846799850464,
    "type": "medium_airport"
  },
  {
    "name": "Kuopio Airport",
    "latitude": 63.007099,
    "longitude": 27.7978,
    "type": "medium_airport"
  },
  {
    "name": "Lappeenranta Airport",
    "latitude": 61.044601,
    "longitude": 28.144743,
    "type": "medium_airport"
  },
  {
    "name": "Mariehamn Airport",
    "latitude": 60.1222,
    "longitude": 19.898199,
    "type": "medium_airport"
  },
  {
    "name": "Mikkeli Airport",
    "latitude": 61.6866,
    "longitude": 27.201799,
    "type": "medium_airport"
  },
  {
    "name": "Oulu Airport",
    "latitude": 64.930099,
    "longitude": 25.354601,
    "type": "medium_airport"
  },
  {
    "name": "Pori Airport",
    "latitude": 61.4617,
    "longitude": 21.799999,
    "type": "medium_airport"
  },
  {
    "name": "Helsinki East-Redstone Aerodrome",
    "latitude": 60.479167,
    "longitude": 26.593889,
    "type": "medium_airport"
  },
  {
    "name": "Rovaniemi Airport",
    "latitude": 66.564796447754,
    "longitude": 25.830400466919,
    "type": "medium_airport"
  },
  {
    "name": "Savonlinna Airport",
    "latitude": 61.9431,
    "longitude": 28.945101,
    "type": "medium_airport"
  },
  {
    "name": "Seinäjoki Airport",
    "latitude": 62.692101,
    "longitude": 22.8323,
    "type": "medium_airport"
  },
  {
    "name": "Sodankyla Airport",
    "latitude": 67.3949966431,
    "longitude": 26.6191005707,
    "type": "medium_airport"
  },
  {
    "name": "Tampere-Pirkkala Airport",
    "latitude": 61.414101,
    "longitude": 23.604401,
    "type": "medium_airport"
  },
  {
    "name": "Turku Airport",
    "latitude": 60.514099,
    "longitude": 22.2628,
    "type": "medium_airport"
  },
  {
    "name": "Utti Air Base",
    "latitude": 60.8964,
    "longitude": 26.9384,
    "type": "medium_airport"
  },
  {
    "name": "Vaasa Airport",
    "latitude": 63.050701,
    "longitude": 21.762199,
    "type": "medium_airport"
  },
  {
    "name": "Varkaus Airport",
    "latitude": 62.171101,
    "longitude": 27.868601,
    "type": "medium_airport"
  },
  {
    "name": "Ylivieska Airfield",
    "latitude": 64.054722,
    "longitude": 24.725278,
    "type": "medium_airport"
  },
  {
    "name": "Bilbeis 2 Airfield",
    "latitude": 30.42060089111328,
    "longitude": 31.67889976501465,
    "type": "medium_airport"
  },
  {
    "name": "Belfast International Airport",
    "latitude": 54.6575012207,
    "longitude": -6.2158298492399995,
    "type": "large_airport"
  },
  {
    "name": "Enniskillen/St Angelo Airport",
    "latitude": 54.398899,
    "longitude": -7.65167,
    "type": "medium_airport"
  },
  {
    "name": "George Best Belfast City Airport",
    "latitude": 54.618099,
    "longitude": -5.8725,
    "type": "medium_airport"
  },
  {
    "name": "City of Derry Airport",
    "latitude": 55.04280090332031,
    "longitude": -7.161109924316406,
    "type": "medium_airport"
  },
  {
    "name": "Birmingham Airport",
    "latitude": 52.453899,
    "longitude": -1.74803,
    "type": "large_airport"
  },
  {
    "name": "Coventry Airport",
    "latitude": 52.369701,
    "longitude": -1.47972,
    "type": "medium_airport"
  },
  {
    "name": "Gloucestershire Airport",
    "latitude": 51.89419937133789,
    "longitude": -2.167220115661621,
    "type": "medium_airport"
  },
  {
    "name": "Nottingham Airport",
    "latitude": 52.919998,
    "longitude": -1.07917,
    "type": "medium_airport"
  },
  {
    "name": "Manchester Airport",
    "latitude": 53.349375,
    "longitude": -2.279521,
    "type": "large_airport"
  },
  {
    "name": "Royal Marines Base Chivenor",
    "latitude": 51.0872,
    "longitude": -4.15034,
    "type": "medium_airport"
  },
  {
    "name": "MoD Boscombe Down",
    "latitude": 51.152199,
    "longitude": -1.74741,
    "type": "medium_airport"
  },
  {
    "name": "RNAS Culdrose",
    "latitude": 50.08610153198242,
    "longitude": -5.255710124969482,
    "type": "medium_airport"
  },
  {
    "name": "MOD St Athan",
    "latitude": 51.405229,
    "longitude": -3.433254,
    "type": "medium_airport"
  },
  {
    "name": "RNAS Yeovilton",
    "latitude": 51.009399,
    "longitude": -2.63882,
    "type": "medium_airport"
  },
  {
    "name": "Campbeltown Airport",
    "latitude": 55.437198638916016,
    "longitude": -5.686389923095703,
    "type": "medium_airport"
  },
  {
    "name": "Eday Airport",
    "latitude": 59.19060134887695,
    "longitude": -2.7722198963165283,
    "type": "medium_airport"
  },
  {
    "name": "Haverfordwest Airport",
    "latitude": 51.833099365234375,
    "longitude": -4.9611101150512695,
    "type": "medium_airport"
  },
  {
    "name": "Cardiff International Airport",
    "latitude": 51.396702,
    "longitude": -3.34333,
    "type": "medium_airport"
  },
  {
    "name": "Swansea Airport",
    "latitude": 51.601366,
    "longitude": -4.071006,
    "type": "medium_airport"
  },
  {
    "name": "Bristol Airport",
    "latitude": 51.382702,
    "longitude": -2.71909,
    "type": "medium_airport"
  },
  {
    "name": "Liverpool John Lennon Airport",
    "latitude": 53.333599,
    "longitude": -2.84972,
    "type": "medium_airport"
  },
  {
    "name": "London Luton Airport",
    "latitude": 51.874699,
    "longitude": -0.368333,
    "type": "large_airport"
  },
  {
    "name": "Bournemouth Airport",
    "latitude": 50.780483,
    "longitude": -1.839576,
    "type": "medium_airport"
  },
  {
    "name": "Southampton Airport",
    "latitude": 50.950298,
    "longitude": -1.3568,
    "type": "medium_airport"
  },
  {
    "name": "Lasham Airfield",
    "latitude": 51.18744,
    "longitude": -1.031663,
    "type": "medium_airport"
  },
  {
    "name": "Cornwall Airport Newquay",
    "latitude": 50.440601,
    "longitude": -4.99541,
    "type": "medium_airport"
  },
  {
    "name": "Alderney Airport",
    "latitude": 49.706104,
    "longitude": -2.21472,
    "type": "medium_airport"
  },
  {
    "name": "Guernsey Airport",
    "latitude": 49.435001,
    "longitude": -2.60197,
    "type": "medium_airport"
  },
  {
    "name": "Jersey Airport",
    "latitude": 49.20790100097656,
    "longitude": -2.195509910583496,
    "type": "medium_airport"
  },
  {
    "name": "Brighton City Airport",
    "latitude": 50.835602,
    "longitude": -0.297222,
    "type": "medium_airport"
  },
  {
    "name": "London Biggin Hill Airport",
    "latitude": 51.33079910279999,
    "longitude": 0.0324999988079,
    "type": "medium_airport"
  },
  {
    "name": "London Gatwick Airport",
    "latitude": 51.148771,
    "longitude": -0.192089,
    "type": "large_airport"
  },
  {
    "name": "London City Airport",
    "latitude": 51.505299,
    "longitude": 0.055278,
    "type": "medium_airport"
  },
  {
    "name": "Farnborough Airport",
    "latitude": 51.275799,
    "longitude": -0.776333,
    "type": "medium_airport"
  },
  {
    "name": "Blackbushe Airport",
    "latitude": 51.323898,
    "longitude": -0.8475,
    "type": "medium_airport"
  },
  {
    "name": "London Heathrow Airport",
    "latitude": 51.4706,
    "longitude": -0.461941,
    "type": "large_airport"
  },
  {
    "name": "London Southend Airport",
    "latitude": 51.570562,
    "longitude": 0.693627,
    "type": "medium_airport"
  },
  {
    "name": "Lydd London Ashford Airport",
    "latitude": 50.956246,
    "longitude": 0.939074,
    "type": "medium_airport"
  },
  {
    "name": "Carlisle Lake District Airport",
    "latitude": 54.9375,
    "longitude": -2.80917,
    "type": "medium_airport"
  },
  {
    "name": "Blackpool International Airport",
    "latitude": 53.77170181274414,
    "longitude": -3.0286099910736084,
    "type": "medium_airport"
  },
  {
    "name": "Humberside Airport",
    "latitude": 53.57440185546875,
    "longitude": -0.350832998752594,
    "type": "medium_airport"
  },
  {
    "name": "Barrow Walney Island Airport",
    "latitude": 54.1286111,
    "longitude": -3.2675,
    "type": "medium_airport"
  },
  {
    "name": "Leeds Bradford Airport",
    "latitude": 53.865898,
    "longitude": -1.66057,
    "type": "medium_airport"
  },
  {
    "name": "Warton Aerodrome",
    "latitude": 53.745098,
    "longitude": -2.88306,
    "type": "medium_airport"
  },
  {
    "name": "Hawarden Airport",
    "latitude": 53.178101,
    "longitude": -2.97778,
    "type": "medium_airport"
  },
  {
    "name": "Isle of Man Airport",
    "latitude": 54.083302,
    "longitude": -4.62389,
    "type": "medium_airport"
  },
  {
    "name": "Newcastle International Airport",
    "latitude": 55.037958,
    "longitude": -1.689577,
    "type": "medium_airport"
  },
  {
    "name": "Teesside International Airport",
    "latitude": 54.509201,
    "longitude": -1.42941,
    "type": "medium_airport"
  },
  {
    "name": "East Midlands Airport",
    "latitude": 52.8311,
    "longitude": -1.32806,
    "type": "medium_airport"
  },
  {
    "name": "RAF Spadeadam",
    "latitude": 55.0499992371,
    "longitude": -2.54999995232,
    "type": "medium_airport"
  },
  {
    "name": "RAF Shawbury",
    "latitude": 52.79819869995117,
    "longitude": -2.6680400371551514,
    "type": "medium_airport"
  },
  {
    "name": "Anglesey Airport",
    "latitude": 53.2481002808,
    "longitude": -4.53533983231,
    "type": "medium_airport"
  },
  {
    "name": "Kirkwall Airport",
    "latitude": 58.957801818847656,
    "longitude": -2.9049999713897705,
    "type": "medium_airport"
  },
  {
    "name": "Sumburgh Airport",
    "latitude": 59.87889862060547,
    "longitude": -1.2955600023269653,
    "type": "medium_airport"
  },
  {
    "name": "Wick Airport",
    "latitude": 58.458900451660156,
    "longitude": -3.09306001663208,
    "type": "medium_airport"
  },
  {
    "name": "Aberdeen Dyce Airport",
    "latitude": 57.2019,
    "longitude": -2.19778,
    "type": "medium_airport"
  },
  {
    "name": "Inverness Airport",
    "latitude": 57.54249954223633,
    "longitude": -4.047500133514404,
    "type": "medium_airport"
  },
  {
    "name": "Glasgow International Airport",
    "latitude": 55.871899,
    "longitude": -4.43306,
    "type": "large_airport"
  },
  {
    "name": "Edinburgh Airport",
    "latitude": 55.950145,
    "longitude": -3.372288,
    "type": "large_airport"
  },
  {
    "name": "Islay Airport",
    "latitude": 55.682708,
    "longitude": -6.257525,
    "type": "medium_airport"
  },
  {
    "name": "Glasgow Prestwick Airport",
    "latitude": 55.502003,
    "longitude": -4.587019,
    "type": "medium_airport"
  },
  {
    "name": "Benbecula Airport",
    "latitude": 57.48109817504883,
    "longitude": -7.3627800941467285,
    "type": "medium_airport"
  },
  {
    "name": "Dundee Airport",
    "latitude": 56.45249938964844,
    "longitude": -3.025830030441284,
    "type": "medium_airport"
  },
  {
    "name": "Stornoway Airport",
    "latitude": 58.215599,
    "longitude": -6.33111,
    "type": "medium_airport"
  },
  {
    "name": "Barra Airport",
    "latitude": 57.0228,
    "longitude": -7.44306,
    "type": "medium_airport"
  },
  {
    "name": "Tiree Airport",
    "latitude": 56.49919891357422,
    "longitude": -6.869170188903809,
    "type": "medium_airport"
  },
  {
    "name": "Leuchars Station Airfield",
    "latitude": 56.37398,
    "longitude": -2.868862,
    "type": "medium_airport"
  },
  {
    "name": "RAF Lossiemouth",
    "latitude": 57.7052001953125,
    "longitude": -3.339169979095459,
    "type": "medium_airport"
  },
  {
    "name": "Cambridge City Airport",
    "latitude": 52.205002,
    "longitude": 0.175,
    "type": "medium_airport"
  },
  {
    "name": "Norwich Airport",
    "latitude": 52.6758,
    "longitude": 1.28278,
    "type": "medium_airport"
  },
  {
    "name": "London Stansted Airport",
    "latitude": 51.884998,
    "longitude": 0.235,
    "type": "large_airport"
  },
  {
    "name": "Cranfield Airport",
    "latitude": 52.072201,
    "longitude": -0.616667,
    "type": "medium_airport"
  },
  {
    "name": "Exeter International Airport",
    "latitude": 50.734261,
    "longitude": -3.413984,
    "type": "medium_airport"
  },
  {
    "name": "Oxford (Kidlington) Airport",
    "latitude": 51.836899,
    "longitude": -1.32,
    "type": "medium_airport"
  },
  {
    "name": "RAF Benson",
    "latitude": 51.614366,
    "longitude": -1.095991,
    "type": "medium_airport"
  },
  {
    "name": "RAF Lakenheath",
    "latitude": 52.40954,
    "longitude": 0.561161,
    "type": "medium_airport"
  },
  {
    "name": "RAF Mildenhall",
    "latitude": 52.3619,
    "longitude": 0.486406,
    "type": "medium_airport"
  },
  {
    "name": "Wattisham Airfield",
    "latitude": 52.127451,
    "longitude": 0.956189,
    "type": "medium_airport"
  },
  {
    "name": "RAF Fairford",
    "latitude": 51.682201,
    "longitude": -1.79003,
    "type": "medium_airport"
  },
  {
    "name": "RAF Brize Norton",
    "latitude": 51.75,
    "longitude": -1.58362,
    "type": "medium_airport"
  },
  {
    "name": "RAF Odiham",
    "latitude": 51.2341,
    "longitude": -0.942825,
    "type": "medium_airport"
  },
  {
    "name": "DCAE Cosford Air Base",
    "latitude": 52.639999,
    "longitude": -2.30558,
    "type": "medium_airport"
  },
  {
    "name": "RAF Northolt",
    "latitude": 51.553001,
    "longitude": -0.418167,
    "type": "medium_airport"
  },
  {
    "name": "RAF Coningsby",
    "latitude": 53.092999,
    "longitude": -0.166014,
    "type": "medium_airport"
  },
  {
    "name": "RAF Leeming",
    "latitude": 54.297191,
    "longitude": -1.538944,
    "type": "medium_airport"
  },
  {
    "name": "Leeds East Airport",
    "latitude": 53.834747,
    "longitude": -1.194678,
    "type": "medium_airport"
  },
  {
    "name": "RAF Honington",
    "latitude": 52.342602,
    "longitude": 0.772939,
    "type": "medium_airport"
  },
  {
    "name": "RAF Wittering",
    "latitude": 52.612598,
    "longitude": -0.476453,
    "type": "medium_airport"
  },
  {
    "name": "RAF Waddington",
    "latitude": 53.1661987305,
    "longitude": -0.523810982704,
    "type": "medium_airport"
  },
  {
    "name": "RAF Topcliffe",
    "latitude": 54.205501556399994,
    "longitude": -1.3820899725,
    "type": "medium_airport"
  },
  {
    "name": "RAF Cranwell",
    "latitude": 53.0303001404,
    "longitude": -0.48324200511,
    "type": "medium_airport"
  },
  {
    "name": "RAF Barkston Heath",
    "latitude": 52.962200164799995,
    "longitude": -0.561625003815,
    "type": "medium_airport"
  },
  {
    "name": "RAF Marham",
    "latitude": 52.648395,
    "longitude": 0.550692,
    "type": "medium_airport"
  },
  {
    "name": "Mount Pleasant Airport",
    "latitude": -51.82279968261719,
    "longitude": -58.447200775146484,
    "type": "medium_airport"
  },
  {
    "name": "Amsterdam Airport Schiphol",
    "latitude": 52.308601,
    "longitude": 4.76389,
    "type": "large_airport"
  },
  {
    "name": "Kempen Airport Budel",
    "latitude": 51.255299,
    "longitude": 5.60139,
    "type": "medium_airport"
  },
  {
    "name": "Maastricht Aachen Airport",
    "latitude": 50.911701,
    "longitude": 5.77014,
    "type": "medium_airport"
  },
  {
    "name": "Deelen Air Base",
    "latitude": 52.0606,
    "longitude": 5.87306,
    "type": "medium_airport"
  },
  {
    "name": "Eindhoven Airport",
    "latitude": 51.4500999451,
    "longitude": 5.37452983856,
    "type": "large_airport"
  },
  {
    "name": "Groningen Airport Eelde",
    "latitude": 53.119701,
    "longitude": 6.57944,
    "type": "medium_airport"
  },
  {
    "name": "Gilze Rijen Air Base",
    "latitude": 51.567402,
    "longitude": 4.93183,
    "type": "medium_airport"
  },
  {
    "name": "De Kooy Airfield / Den Helder Naval Air Station",
    "latitude": 52.923401,
    "longitude": 4.78062,
    "type": "medium_airport"
  },
  {
    "name": "Lelystad Airport",
    "latitude": 52.453188,
    "longitude": 5.514622,
    "type": "medium_airport"
  },
  {
    "name": "Leeuwarden Air Base",
    "latitude": 53.228599548339844,
    "longitude": 5.760560035705566,
    "type": "medium_airport"
  },
  {
    "name": "Rotterdam The Hague Airport",
    "latitude": 51.956902,
    "longitude": 4.43722,
    "type": "medium_airport"
  },
  {
    "name": "Twente Airport",
    "latitude": 52.275833,
    "longitude": 6.889167,
    "type": "medium_airport"
  },
  {
    "name": "Ezhou Huahu Airport",
    "latitude": 30.341178,
    "longitude": 115.03926,
    "type": "large_airport"
  },